접수년도,자치구코드,자치구명,법정동코드,법정동명,지번구분코드,지번구분,본번,부번,층,계약일,전월세구분,임대면적,보증금(만원),임대료(만원),건물명,건축년도,건물용도,주소,위도,경도,제곱미터당전세가,평당전세가
2019,11350,노원구,10500,상계동,1,대지,1256,0,2.0,20181222,전세,39.7,15000,0,은빛2단지,1998.0,아파트,노원구 상계동 1256,37.6799626,127.0535049,377.83,114.29
2022,11710,송파구,10800,문정동,1,대지,622,0,7.0,20220217,월세,29.96,1000,82,송파한화오벨리스크,2013.0,오피스텔,송파구 문정동 622,37.4800949,127.1196836,33.38,10.1
2013,11470,양천구,10200,목동,1,대지,925,0,15.0,20130225,전세,66.6,28000,0,목동신시가지7,1986.0,아파트,양천구 목동 925,37.5288229,126.8678406,420.42,127.18
2020,11560,영등포구,13200,신길동,1,대지,4964,0,12.0,20200210,전세,59.98,50000,0,신길센트럴자이아파트,2021.0,아파트,영등포구 신길동 4964,37.5030677,126.9077516,833.61,252.17
2013,11560,영등포구,12700,양평동3가,1,대지,54,0,5.0,20130225,전세,94.79,23000,0,양평동 대우이안2,2005.0,오피스텔,영등포구 양평동3가 54,37.5270284,126.8893734,242.64,73.4
2022,11590,동작구,10200,상도동,1,대지,900,0,3.0,20220301,월세,84.89,20000,215,상도파크자이,2016.0,아파트,동작구 상도동 900,37.5057831,126.9383233,235.6,71.27
2018,11740,강동구,11000,강일동,1,대지,674,0,9.0,20181010,전세,84.53,40000,0,강일리버파크3단지,2009.0,아파트,강동구 강일동 674,37.5667207,127.1747157,473.2,143.14
2015,11500,강서구,10500,마곡동,1,대지,784,0,5.0,20150717,월세,17.96,500,40,마곡경동미르웰,2015.0,오피스텔,강서구 마곡동 784,37.566206,126.8402258,27.84,8.42
2014,11710,송파구,10200,신천동,1,대지,17,6,3.0,20140405,전세,46.54,20000,0,미성,1980.0,아파트,송파구 신천동 17-6,37.517514,127.1070384,429.74,130.0
2018,11440,마포구,11100,신수동,1,대지,22,35,9.0,20181130,월세,31.83,1000,75,하나테크노빌,2002.0,아파트,마포구 신수동 22-35,37.548517,126.9400194,31.42,9.5
2012,11680,강남구,11500,수서동,1,대지,746,0,6.0,20120917,전세,34.44,15500,0,까치마을,1993.0,아파트,강남구 수서동 746,37.4847337,127.0876186,450.06,136.14
2021,11530,구로구,10800,오류동,1,대지,156,15,3.0,20211023,전세,75.87,20000,0,현대연립,1985.0,연립다세대,구로구 오류동 156-15,37.4890753,126.8412519,263.61,79.74
2013,11305,강북구,10300,수유동,1,대지,45,93,2.0,20130927,전세,30.8,6000,0,대성월드빌,2002.0,아파트,강북구 수유동 45-93,37.6351792,127.0215197,194.81,58.93
2022,11380,은평구,10300,불광동,1,대지,329,7,6.0,20220513,전세,42.23,27000,0,행복공간,2013.0,연립다세대,은평구 불광동 329-7,37.618087,126.9256774,639.36,193.41
2018,11650,서초구,10700,반포동,1,대지,757,0,1.0,20180305,전세,106.26,46000,0,반포주공1단지,1973.0,아파트,서초구 반포동 757,37.5053539,126.9890363,432.9,130.95
2016,11440,마포구,11400,창전동,1,대지,6,243,1.0,20160118,전세,37.16,6000,0,(6-243),2002.0,연립다세대,마포구 창전동 6-243,37.5522864,126.9275963,161.46,48.84
2022,11320,도봉구,10500,쌍문동,1,대지,103,6,11.0,20220511,월세,19.17,2692,9,인히어쌍문,2022.0,아파트,도봉구 쌍문동 103-6,37.6458629,127.0326045,140.43,42.48
2011,11230,동대문구,10500,답십리동,1,대지,998,0,6.0,20110415,월세,84.91,20000,50,두산위브,2007.0,아파트,동대문구 답십리동 998,37.5661855,127.0576942,235.54,71.25
2017,11620,관악구,10100,봉천동,1,대지,895,9,6.0,20170419,월세,27.52,6000,70,그레이빌,2017.0,연립다세대,관악구 봉천동 895-9,37.4809165,126.9467656,218.02,65.95
2022,11200,성동구,10700,행당동,1,대지,349,0,5.0,20220107,월세,59.94,20000,55,서울숲 한신 더 휴,2003.0,아파트,성동구 행당동 349,37.5551292,127.036254,333.67,100.93
2013,11140,중구,16200,신당동,1,대지,843,0,13.0,20130302,전세,59.98,25000,0,삼성,1999.0,아파트,중구 신당동 843,37.5581685,127.0178958,416.81,126.08
2019,11650,서초구,10700,반포동,1,대지,20,43,21.0,20181227,월세,84.98,90000,130,반포자이,2009.0,아파트,서초구 반포동 20-43,37.5066137,127.0140157,1059.07,320.37
2022,11440,마포구,12500,성산동,1,대지,50,10,6.0,20221129,월세,26.79,9000,25,골든빌오피스텔(50-10),2003.0,오피스텔,마포구 성산동 50-10,37.5652398,126.912995,335.95,101.62
2011,11545,금천구,10300,시흥동,1,대지,1002,1,5.0,20110503,전세,49.75,10000,0,럭키남서울아파트,1981.0,아파트,금천구 시흥동 1002-1,37.4504215,126.8993776,201.01,60.8
2011,11560,영등포구,12100,문래동3가,1,대지,54,0,13.0,20110303,전세,121.53,42000,0,문래자이,2001.0,아파트,영등포구 문래동3가 54,37.51614319999999,126.8967779,345.59,104.54
2021,11200,성동구,10700,행당동,1,대지,347,0,15.0,20210731,전세,114.94,85000,0,대림e-편한세상,2000.0,아파트,성동구 행당동 347,37.5579013,127.0271186,739.52,223.7
2022,11260,중랑구,10500,망우동,1,대지,608,0,21.0,20221222,월세,44.55,8680,31,LH서울양원1단지,2022.0,아파트,중랑구 망우동 608,37.59958719999999,127.106326,194.84,58.94
2020,11650,서초구,10700,반포동,1,대지,18,1,18.0,20200528,전세,222.76,290000,0,래미안퍼스티지,2009.0,아파트,서초구 반포동 18-1,37.502931,126.9992466,1301.85,393.81
2022,11710,송파구,10100,잠실동,1,대지,27,0,2.0,20220701,월세,76.5,30000,75,주공아파트 5단지,1978.0,아파트,송파구 잠실동 27,37.5152448,127.0948683,392.16,118.63
2014,11560,영등포구,12700,양평동3가,1,대지,101,0,17.0,20140228,전세,84.94,28000,0,양평현대6차,2000.0,아파트,영등포구 양평동3가 101,37.5318483,126.8935108,329.64,99.72
2012,11710,송파구,11300,거여동,1,대지,225,15,5.0,20120126,전세,60.86,11000,0,환주빌리지,2002.0,연립다세대,송파구 거여동 225-15,37.4914268,127.1502013,180.74,54.67
2022,11530,구로구,10900,궁동,1,대지,190,116,5.0,20220919,전세,44.01,21000,0,예지팰리스86차,2015.0,연립다세대,구로구 궁동 190-116,37.4947503,126.8339787,477.16,144.34
2021,11710,송파구,10800,문정동,1,대지,145,0,12.0,20210121,월세,39.69,3000,65,문정시영,1989.0,아파트,송파구 문정동 145,37.4905974,127.1354467,75.59,22.86
2011,11350,노원구,10200,월계동,1,대지,929,0,3.0,20110305,전세,59.95,3000,0,현대,2000.0,아파트,노원구 월계동 929,37.6185529,127.0625822,50.04,15.14
2016,11650,서초구,10100,방배동,1,대지,906,11,4.0,20161014,전세,62.33,33000,0,드림빌(906-11),2002.0,연립다세대,서초구 방배동 906-11,37.4848052,126.9970795,529.44,160.16
2019,11290,성북구,13800,장위동,1,대지,173,114,18.0,20190715,전세,84.94,38000,0,래미안장위퍼스트하이,2020.0,아파트,성북구 장위동 173-114,37.6190851,127.0506754,447.37,135.33
2019,11380,은평구,10600,대조동,1,대지,186,45,8.0,20190919,전세,17.18,10000,0,H빌딩,2013.0,아파트,은평구 대조동 186-45,37.61685490000001,126.922587,582.07,176.08
2022,11200,성동구,10100,상왕십리동,1,대지,811,0,17.0,20220428,월세,84.92,73000,45,텐즈힐(2구역),2014.0,아파트,성동구 상왕십리동 811,37.5693623,127.0247156,859.63,260.04
2020,11650,서초구,10600,잠원동,1,대지,56,2,12.0,20201208,전세,53.46,45000,0,신반포27,1985.0,아파트,서초구 잠원동 56-2,37.5157781,127.0098306,841.75,254.63
2019,11440,마포구,10400,도화동,1,대지,357,0,1.0,20191107,전세,128.26,50000,0,도화동현대,1996.0,아파트,마포구 도화동 357,37.5394259,126.9538604,389.83,117.92
2016,11260,중랑구,10100,면목동,1,대지,1516,0,20.0,20151202,전세,59.5,24000,0,면목삼익아파트,1997.0,아파트,중랑구 면목동 1516,37.5752186,127.0795854,403.36,122.02
2014,11620,관악구,10200,신림동,1,대지,88,20,5.0,20140604,전세,26.86,16500,0,골드빌리지,2014.0,연립다세대,관악구 신림동 88-20,37.4806508,126.9321677,614.3,185.82
2013,11680,강남구,10300,개포동,1,대지,1256,0,1.0,20130328,전세,33.3,12000,0,청호빌라,1997.0,연립다세대,강남구 개포동 1256,37.4796962,127.0472174,360.36,109.01
2020,11140,중구,16300,흥인동,1,대지,13,1,11.0,20200604,전세,124.37,95000,0,청계천두산위브더제니스,2014.0,아파트,중구 흥인동 13-1,37.5668612,127.0171104,763.85,231.06
2014,11230,동대문구,10600,장안동,1,대지,431,7,12.0,20140123,전세,20.2,7000,0,장안 루아르 오피스텔,2012.0,오피스텔,동대문구 장안동 431-7,37.5637389,127.0654666,346.53,104.83
2012,11560,영등포구,11000,여의도동,1,대지,42,0,7.0,20120107,전세,149.59,41000,0,한양,1975.0,아파트,영등포구 여의도동 42,37.5214745,126.9325037,274.08,82.91
2019,11440,마포구,12500,성산동,1,대지,446,0,14.0,20180512,전세,59.43,24500,0,성산시영(유원),1986.0,아파트,마포구 성산동 446,37.572115,126.9018923,412.25,124.71
2017,11260,중랑구,10200,상봉동,1,대지,81,5,12.0,20170208,전세,125.68,45000,0,한일써너스빌,2003.0,아파트,중랑구 상봉동 81-5,37.5971029,127.0911815,358.05,108.31
2020,11740,강동구,10300,상일동,1,대지,519,0,22.0,20200417,월세,84.97,10000,150,고덕아르테온,2020.0,아파트,강동구 상일동 519,37.5555486,127.1643221,117.69,35.6
2013,11650,서초구,10800,서초동,1,대지,1332,0,2.0,20130415,전세,100.61,20000,0,우성3,1980.0,아파트,서초구 서초동 1332,37.4918245,127.0247203,198.79,60.13
2017,11440,마포구,12300,망원동,1,대지,57,197,3.0,20170627,전세,46.46,20000,0,다세대주택,2008.0,연립다세대,마포구 망원동 57-197,37.5545293,126.9074217,430.48,130.22
2022,11710,송파구,10100,잠실동,1,대지,175,12,1.0,20220818,월세,34.02,15000,27,올림픽타워,2004.0,오피스텔,송파구 잠실동 175-12,37.5114271,127.0805129,440.92,133.38
2016,11230,동대문구,11000,이문동,1,대지,325,20,11.0,20151210,전세,22.14,7000,0,민족통일 대통령 리빙텔,2004.0,오피스텔,동대문구 이문동 325-20,37.5944582,127.0593111,316.17,95.64
2021,11320,도봉구,10600,방학동,1,대지,271,1,1.0,20211207,전세,112.49,37200,0,신동아아파트1,1986.0,아파트,도봉구 방학동 271-1,37.660882,127.0266718,330.7,100.04
2019,11500,강서구,10300,화곡동,1,대지,366,21,5.0,20190711,전세,39.24,19500,0,JKVILL,2015.0,연립다세대,강서구 화곡동 366-21,37.5345396,126.8414124,496.94,150.32
2021,11350,노원구,10500,상계동,1,대지,737,0,1.0,20190926,전세,62.17,23000,0,상계주공3(저층),1987.0,아파트,노원구 상계동 737,37.6518924,127.0579984,369.95,111.91
2011,11470,양천구,10100,신정동,1,대지,912,10,5.0,20111219,월세,18.56,1000,35,영훈은률(912-10),2011.0,연립다세대,양천구 신정동 912-10,37.52691799999999,126.8566676,53.88,16.3
2015,11305,강북구,10300,수유동,1,대지,701,6,,20150212,전세,41.2,4000,0,동원빌라,1991.0,연립다세대,강북구 수유동 701-6,37.6485001,127.018918,97.09,29.37
2021,11620,관악구,10200,신림동,1,대지,1678,0,2.0,20210410,전세,48.87,19000,0,찬솔팰리스,2014.0,연립다세대,관악구 신림동 1678,37.4732185,126.9213975,388.79,117.61
2017,11350,노원구,10300,공릉동,1,대지,350,97,4.0,20170115,전세,64.33,5000,0,로뎀하우스,2009.0,연립다세대,노원구 공릉동 350-97,37.6240788,127.078132,77.72,23.51
2017,11710,송파구,10100,잠실동,1,대지,19,0,7.0,20170617,월세,84.8,20000,160,잠실엘스,2008.0,아파트,송파구 잠실동 19,37.5140688,127.0813814,235.85,71.34
2012,11350,노원구,10200,월계동,1,대지,13,0,5.0,20120224,전세,50.14,11000,0,미성,1986.0,아파트,노원구 월계동 13,37.6245902,127.0654159,219.39,66.36
2022,11680,강남구,10100,역삼동,1,대지,777,12,2.0,20220730,전세,42.55,30400,0,(777-12),2015.0,연립다세대,강남구 역삼동 777-12,37.4954385,127.0419125,714.45,216.12
2014,11350,노원구,10500,상계동,1,대지,647,0,5.0,20141030,전세,41.3,11000,0,상계주공12(고층),1988.0,아파트,노원구 상계동 647,37.6661657,127.0593193,266.34,80.57
2014,11230,동대문구,10600,장안동,1,대지,365,4,9.0,20140606,전세,51.07,18500,0,서희스타힐스,2013.0,아파트,동대문구 장안동 365-4,37.5692893,127.0705358,362.25,109.58
2021,11680,강남구,10100,역삼동,1,대지,755,4,8.0,20210113,전세,84.99,150000,0,e-편한세상,2005.0,아파트,강남구 역삼동 755-4,37.4987773,127.0498786,1764.91,533.89
2020,11650,서초구,10800,서초동,1,대지,1685,3,35.0,20191203,전세,138.96,135000,0,아크로비스타,2004.0,아파트,서초구 서초동 1685-3,37.4981989,127.0133145,971.5,293.88
2012,11305,강북구,10100,미아동,1,대지,561,2,2.0,20121218,전세,59.4,11300,0,현대성우,1998.0,아파트,강북구 미아동 561-2,37.617204,127.0221045,190.24,57.55
2019,11260,중랑구,10400,묵동,1,대지,167,0,18.0,20170628,전세,59.89,26500,0,신도,1998.0,아파트,중랑구 묵동 167,37.6168557,127.077373,442.48,133.85
2021,11650,서초구,10800,서초동,1,대지,1442,6,4.0,20210313,전세,29.71,24600,0,스마트빌,2015.0,연립다세대,서초구 서초동 1442-6,37.4848968,127.0212357,828.0,250.47
2015,11470,양천구,10100,신정동,1,대지,327,0,8.0,20141121,전세,70.73,31000,0,목동신시가지13,1987.0,아파트,양천구 신정동 327,37.5141907,126.8650029,438.29,132.58
2020,11380,은평구,10200,녹번동,1,대지,282,0,14.0,20201120,전세,84.9,52500,0,힐스테이트녹번,2019.0,아파트,은평구 녹번동 282,37.6017429,126.9368222,618.37,187.06
2011,11710,송파구,11300,거여동,1,대지,294,0,12.0,20110728,월세,59.74,4000,90,거여5단지,1997.0,아파트,송파구 거여동 294,37.4888872,127.1453182,66.96,20.25
2021,11380,은평구,11400,진관동,1,대지,27,0,2.0,20201124,전세,84.78,60000,0,은평뉴타운구파발(금호어울림10단지),2010.0,아파트,은평구 진관동 27,37.6449232,126.9239742,707.71,214.08
2018,11650,서초구,10700,반포동,1,대지,968,0,2.0,20180124,전세,72.51,25000,0,에이아이디차관주택,1974.0,아파트,서초구 반포동 968,37.5006731,126.9912337,344.78,104.3
2018,11200,성동구,11100,금호동3가,1,대지,700,0,15.0,20180812,전세,84.98,56000,0,금호자이2차,2012.0,아파트,성동구 금호동3가 700,37.5503253,127.0218814,658.98,199.34
2013,11680,강남구,10600,대치동,1,대지,932,21,3.0,20130313,전세,19.22,8500,0,창전유니빌,2002.0,연립다세대,강남구 대치동 932-21,37.4996048,127.0593068,442.25,133.78
2021,11170,용산구,11200,원효로1가,1,대지,112,4,7.0,20210731,전세,25.5,16000,0,디아뜨 센트럴,2004.0,오피스텔,용산구 원효로1가 112-4,37.540962,126.970338,627.45,189.8
2022,11710,송파구,10100,잠실동,1,대지,35,0,21.0,20221219,전세,84.83,93000,0,트리지움,2007.0,아파트,송파구 잠실동 35,37.5098873,127.0895702,1096.31,331.63
2015,11620,관악구,10100,봉천동,1,대지,478,16,2.0,20151222,전세,52.2,10000,0,유승빌라,1991.0,연립다세대,관악구 봉천동 478-16,37.4897976,126.9477564,191.57,57.95
2021,11215,광진구,10700,화양동,1,대지,113,1,4.0,20210202,월세,15.63,1000,60,광진코지웰,2014.0,아파트,광진구 화양동 113-1,37.5470672,127.071841,63.98,19.35
2018,11500,강서구,10300,화곡동,1,대지,874,7,2.0,20181013,월세,46.3,2000,50,중앙주택,2002.0,연립다세대,강서구 화곡동 874-7,37.5307651,126.8530956,43.2,13.07
2013,11650,서초구,10300,우면동,1,대지,730,0,12.0,20130131,전세,114.95,35200,0,서초네이처힐5단지,2011.0,아파트,서초구 우면동 730,37.4625181,127.0248296,306.22,92.63
2019,11740,강동구,11000,강일동,1,대지,699,0,7.0,20190807,전세,84.74,43000,0,강일리버파크9단지,2009.0,아파트,강동구 강일동 699,37.55985,127.1788258,507.43,153.5
2012,11350,노원구,10500,상계동,1,대지,666,0,9.0,20120111,전세,41.3,10000,0,상계주공10(고층),1988.0,아파트,노원구 상계동 666,37.6630142,127.0557097,242.13,73.24
2021,11350,노원구,10500,상계동,1,대지,749,5,10.0,20200207,월세,41.3,1000,60,상계주공4(고층),1988.0,아파트,노원구 상계동 749-5,37.6500651,127.0622174,24.21,7.32
2022,11380,은평구,10300,불광동,1,대지,242,43,2.0,20220627,전세,43.38,13000,0,(242-43),1986.0,연립다세대,은평구 불광동 242-43,37.6149622,126.9322164,299.68,90.65
2021,11215,광진구,10500,자양동,1,대지,596,4,3.0,20210724,전세,34.38,20000,0,대명리치빌,2008.0,연립다세대,광진구 자양동 596-4,37.53090419999999,127.0784807,581.73,175.97
2021,11740,강동구,10300,상일동,1,대지,490,0,1.0,20210330,전세,84.83,18629,0,고덕리엔파크3단지,2011.0,아파트,강동구 상일동 490,37.5524225,127.1753241,219.6,66.43
2017,11380,은평구,10700,응암동,1,대지,731,21,5.0,20170112,전세,37.7,7000,0,"고려빌라(A,B)(731-21)",2003.0,연립다세대,은평구 응암동 731-21,37.5851638,126.9202162,185.68,56.17
2015,11710,송파구,10500,석촌동,1,대지,179,12,2.0,20150311,월세,43.47,3000,60,진주빌라,2003.0,연립다세대,송파구 석촌동 179-12,37.5064789,127.1043559,69.01,20.88
2021,11500,강서구,10600,내발산동,1,대지,742,0,5.0,20210413,월세,39.92,2247,20,마곡수명산파크1단지,2007.0,아파트,강서구 내발산동 742,37.5543776,126.8302062,56.29,17.03
2013,11650,서초구,10200,양재동,1,대지,90,0,4.0,20130613,전세,39.1,20500,0,신영체르니,2002.0,아파트,서초구 양재동 90,37.4790333,127.0414993,524.3,158.6
2012,11410,서대문구,11100,홍제동,1,대지,465,0,7.0,20120407,전세,116.28,29000,0,인왕산벽산,2003.0,아파트,서대문구 홍제동 465,37.5923845,126.9484472,249.4,75.44
2013,11410,서대문구,10100,충정로2가,1,대지,37,4,,20130208,월세,24.0,1000,60,서호빌,2013.0,연립다세대,서대문구 충정로2가 37-4,37.565719,126.964998,41.67,12.6
2012,11530,구로구,10700,개봉동,1,대지,476,0,15.0,20111217,전세,59.57,18000,0,한마을,1999.0,아파트,구로구 개봉동 476,37.4952641,126.8625018,302.17,91.41
2017,11410,서대문구,11800,홍은동,1,대지,277,60,4.0,20170707,월세,144.3,25000,50,넥서스빌,2002.0,아파트,서대문구 홍은동 277-60,37.5818082,126.9327502,173.25,52.41
2014,11680,강남구,10600,대치동,1,대지,316,0,11.0,20140812,전세,84.43,37000,0,은마,1979.0,아파트,강남구 대치동 316,37.4974176,127.0653272,438.23,132.57
2012,11350,노원구,10500,상계동,1,대지,691,0,12.0,20121022,월세,41.3,3000,35,상계주공7(고층),1988.0,아파트,노원구 상계동 691,37.6601568,127.0623087,72.64,21.97
2022,11350,노원구,10500,상계동,1,대지,1306,0,12.0,20220511,월세,84.89,15000,76,우림루미아트1,2004.0,아파트,노원구 상계동 1306,37.6745862,127.0561391,176.7,53.45
2015,11680,강남구,11500,수서동,1,대지,746,0,7.0,20150416,전세,34.44,22000,0,까치마을,1993.0,아파트,강남구 수서동 746,37.4847337,127.0876186,638.79,193.23
2011,11560,영등포구,12600,양평동2가,1,대지,45,0,6.0,20110415,월세,27.99,847,9,상록수,1999.0,아파트,영등포구 양평동2가 45,37.5237771,126.8835404,30.26,9.15
2011,11500,강서구,10200,등촌동,1,대지,688,0,15.0,20110919,월세,58.14,2000,90,주공3,1995.0,아파트,강서구 등촌동 688,37.5616414,126.8411116,34.4,10.41
2022,11320,도봉구,10800,도봉동,1,대지,595,0,10.0,20220207,전세,84.86,38000,0,럭키,1992.0,아파트,도봉구 도봉동 595,37.6792277,127.0444167,447.8,135.46
2015,11170,용산구,12800,한강로3가,1,대지,63,387,16.0,20150326,전세,145.65,85000,0,시티파크(2단지),2007.0,아파트,용산구 한강로3가 63-387,37.5261582,126.9698833,583.59,176.54
2016,11740,강동구,10700,암사동,1,대지,414,2,15.0,20160822,월세,84.81,41500,30,롯데캐슬퍼스트,2008.0,아파트,강동구 암사동 414-2,37.5564401,127.1420345,489.33,148.02
2017,11290,성북구,12500,안암동5가,1,대지,134,18,7.0,20170725,월세,10.8,1000,50,구겸빌딩,2016.0,연립다세대,성북구 안암동5가 134-18,37.5821223,127.0283557,92.59,28.01
2012,11620,관악구,10100,봉천동,1,대지,877,8,4.0,20120113,월세,13.14,500,38,하늘채 오피스텔,2004.0,오피스텔,관악구 봉천동 877-8,37.479562,126.9501514,38.05,11.51
2018,11710,송파구,10500,석촌동,1,대지,287,7,3.0,20180331,월세,47.25,2500,35,(287-7),2001.0,연립다세대,송파구 석촌동 287-7,37.5039619,127.106614,52.91,16.01
2021,11200,성동구,11500,성수동2가,1,대지,834,0,4.0,20210601,전세,104.56,57750,0,현대I-PARK,2003.0,아파트,성동구 성수동2가 834,37.54740719999999,127.0566112,552.31,167.08
2021,11590,동작구,10200,상도동,1,대지,363,164,12.0,20210202,월세,14.7,2000,55,상도휴엔하임,2016.0,아파트,동작구 상도동 363-164,37.5049864,126.9379435,136.05,41.16
2019,11710,송파구,10900,장지동,1,대지,879,0,17.0,20190424,전세,59.85,42000,0,송파더센트레,2013.0,아파트,송파구 장지동 879,37.479192,127.1401365,701.75,212.28
2020,11530,구로구,10600,고척동,1,대지,326,0,8.0,20200404,전세,59.94,14000,0,청구,1999.0,아파트,구로구 고척동 326,37.5015398,126.863838,233.57,70.65
2016,11680,강남구,10300,개포동,1,대지,141,0,1.0,20160320,전세,41.98,12000,0,개포주공1단지,1982.0,아파트,강남구 개포동 141,37.4785022,127.0615383,285.85,86.47
2011,11680,강남구,10500,삼성동,1,대지,4,6,14.0,20110402,전세,85.0,33000,0,삼성동한솔아파트,1998.0,아파트,강남구 삼성동 4-6,37.5173885,127.0455038,388.24,117.44
2020,11710,송파구,10100,잠실동,1,대지,27,0,3.0,20201107,전세,81.75,38800,0,주공아파트 5단지,1978.0,아파트,송파구 잠실동 27,37.5152448,127.0948683,474.62,143.57
2011,11260,중랑구,10600,신내동,1,대지,618,0,5.0,20110316,월세,59.4,5000,50,동성3,1997.0,아파트,중랑구 신내동 618,37.608527,127.0962462,84.18,25.46
2013,11350,노원구,10300,공릉동,1,대지,383,12,2.0,20130107,월세,17.14,2000,50,건양오피스텔,2012.0,오피스텔,노원구 공릉동 383-12,37.6253492,127.0716233,116.69,35.3
2012,11290,성북구,13500,종암동,1,대지,3,37,5.0,20120223,월세,51.2,4000,30,종암하이츠,2002.0,연립다세대,성북구 종암동 3-37,37.5968428,127.0396505,78.12,23.63
2017,11545,금천구,10300,시흥동,1,대지,5,13,3.0,20170725,전세,84.96,30000,0,삼익,1999.0,아파트,금천구 시흥동 5-13,37.4632778,126.9094469,353.11,106.81
2021,11200,성동구,10800,응봉동,1,대지,100,0,11.0,20210601,전세,63.18,48000,0,대림(1차),1986.0,아파트,성동구 응봉동 100,37.5519304,127.0332646,759.73,229.82
2015,11440,마포구,12200,합정동,1,대지,472,0,29.0,20150314,전세,119.99,85000,0,마포한강푸르지오,2015.0,아파트,마포구 합정동 472,37.5499947,126.9121946,708.39,214.29
2013,11440,마포구,12000,서교동,1,대지,333,44,2.0,20130227,월세,22.46,3500,50,WhiteVille,2002.0,연립다세대,마포구 서교동 333-44,37.5551686,126.9265708,155.83,47.14
2012,11410,서대문구,10200,충정로3가,1,대지,465,0,4.0,20111226,월세,29.23,3000,35,충정리시온,2004.0,오피스텔,서대문구 충정로3가 465,37.5602867,126.964843,102.63,31.05
2014,11710,송파구,10900,장지동,1,대지,901,0,7.0,20140222,전세,84.93,29000,0,위례24단지(꿈에그린),2013.0,아파트,송파구 장지동 901,37.4759174,127.1393662,341.46,103.29
2021,11650,서초구,10800,서초동,1,대지,1495,3,5.0,20211202,월세,94.37,70000,8,라포레서리풀,2017.0,연립다세대,서초구 서초동 1495-3,37.4854474,127.0023194,741.76,224.38
2017,11650,서초구,10600,잠원동,1,대지,73,0,4.0,20161223,전세,92.2,54000,0,신반포2,1978.0,아파트,서초구 잠원동 73,37.51023,127.0022228,585.68,177.17
2017,11470,양천구,10300,신월동,1,대지,207,24,2.0,20170615,전세,59.4,15000,0,금강,1998.0,아파트,양천구 신월동 207-24,37.5269314,126.8335113,252.53,76.39
2019,11560,영등포구,11800,도림동,1,대지,820,0,9.0,20191008,전세,86.54,35000,0,쌍용플래티넘시티1단지,2006.0,오피스텔,영등포구 도림동 820,37.5094299,126.8943712,404.44,122.34
2022,11170,용산구,13600,보광동,1,대지,151,0,7.0,20220604,월세,59.7,2000,135,리버빌(삼성),2000.0,아파트,용산구 보광동 151,37.5242895,127.0008585,33.5,10.13
2020,11710,송파구,11100,방이동,1,대지,227,3,4.0,20161210,월세,46.93,13000,46,삼성파크빌,2001.0,연립다세대,송파구 방이동 227-3,37.5070782,127.1197005,277.01,83.8
2015,11440,마포구,11400,창전동,1,대지,437,0,20.0,20150420,전세,59.94,30000,0,창전래미안,1998.0,아파트,마포구 창전동 437,37.5511712,126.9309007,500.5,151.4
2019,11710,송파구,10900,장지동,1,대지,905,0,3.0,20191209,월세,49.48,5837,30,위례포레샤인23단지,2017.0,아파트,송파구 장지동 905,37.4763763,127.13534,117.97,35.68
2015,11380,은평구,11400,진관동,1,대지,105,0,2.0,20150626,월세,49.01,4111,27,은평뉴타운마고정2단지,2009.0,아파트,은평구 진관동 105,37.6334239,126.9239746,83.88,25.37
2019,11230,동대문구,10600,장안동,1,대지,94,55,2.0,20181123,전세,64.2,17000,0,금성1동(94-55),1984.0,연립다세대,동대문구 장안동 94-55,37.5808606,127.0701453,264.8,80.1
2020,11650,서초구,10700,반포동,1,대지,20,43,17.0,20200302,월세,132.44,106000,290,반포자이,2009.0,아파트,서초구 반포동 20-43,37.5066137,127.0140157,800.36,242.11
2015,11650,서초구,10300,우면동,1,대지,59,0,2.0,20150321,전세,84.96,45000,0,동고,1995.0,아파트,서초구 우면동 59,37.4713569,127.0235674,529.66,160.22
2014,11620,관악구,10100,봉천동,1,대지,972,43,2.0,20140318,월세,21.26,500,38,(972-43),2002.0,오피스텔,관악구 봉천동 972-43,37.4905189,126.9258941,23.52,7.11
2018,11200,성동구,11400,성수동1가,1,대지,656,234,2.0,20180427,전세,59.89,41000,0,서울숲대림,2000.0,아파트,성동구 성수동1가 656-234,37.5420586,127.0453207,684.59,207.09
2022,11620,관악구,10200,신림동,1,대지,98,279,1.0,20221018,월세,32.68,300,40,진환빌,2011.0,연립다세대,관악구 신림동 98-279,37.475339,126.9419341,9.18,2.78
2020,11710,송파구,10400,송파동,1,대지,9,16,2.0,20190626,월세,48.33,5000,70,(9-16),2004.0,연립다세대,송파구 송파동 9-16,37.5083138,127.1053383,103.46,31.3
2022,11230,동대문구,10500,답십리동,1,대지,488,18,3.0,20220923,전세,14.24,9100,0,센시티16,2013.0,아파트,동대문구 답십리동 488-18,37.56627520000001,127.0563588,639.04,193.31
2013,11350,노원구,10500,상계동,1,대지,1255,0,11.0,20130611,월세,49.77,3000,50,은빛1단지,1998.0,아파트,노원구 상계동 1255,37.6815167,127.0538446,60.28,18.23
2018,11680,강남구,11800,도곡동,1,대지,957,11,12.0,20180702,전세,112.75,83000,0,도곡스타클래스,2007.0,아파트,강남구 도곡동 957-11,37.4851442,127.0357571,736.14,222.68
2017,11710,송파구,10700,가락동,1,대지,96,1,8.0,20170602,월세,43.79,25000,6,우성,1986.0,아파트,송파구 가락동 96-1,37.49662259999999,127.1177972,570.91,172.7
2017,11230,동대문구,10600,장안동,1,대지,407,8,2.0,20160329,월세,26.0,2146,12,장안주택1,2014.0,연립다세대,동대문구 장안동 407-8,37.5633275,127.0618158,82.54,24.97
2022,11560,영등포구,11500,당산동5가,1,대지,7,2,2.0,20220810,전세,84.6,46200,0,유원제일2차,1984.0,아파트,영등포구 당산동5가 7-2,37.533081,126.8983856,546.1,165.2
2019,11500,강서구,10500,마곡동,1,대지,793,3,3.0,20190817,월세,18.97,3000,35,마곡에비앙,2015.0,오피스텔,강서구 마곡동 793-3,37.5623858,126.8390265,158.14,47.84
2015,11560,영등포구,13200,신길동,1,대지,4759,0,1.0,20150205,월세,60.48,4000,60,삼성,1984.0,아파트,영등포구 신길동 4759,37.4963658,126.9111928,66.14,20.01
2016,11260,중랑구,10500,망우동,1,대지,226,0,5.0,20160926,전세,81.91,18000,0,경남,1989.0,아파트,중랑구 망우동 226,37.6037964,127.10671,219.75,66.48
2015,11545,금천구,10200,독산동,1,대지,333,2,4.0,20150124,전세,44.19,9500,0,(333-2),2004.0,오피스텔,금천구 독산동 333-2,37.4700465,126.8909092,214.98,65.03
2017,11320,도봉구,10500,쌍문동,1,대지,725,0,1.0,20170102,전세,84.94,25000,0,쌍문동삼성래미안,2002.0,아파트,도봉구 쌍문동 725,37.6468367,127.0279814,294.33,89.03
2021,11620,관악구,10100,봉천동,1,대지,1666,51,9.0,20210425,전세,15.45,23000,0,더헤르미온,2021.0,오피스텔,관악구 봉천동 1666-51,37.4807776,126.9551884,1488.67,450.32
2014,11440,마포구,12300,망원동,1,대지,496,0,3.0,20140902,전세,84.96,28500,0,대림1,2002.0,아파트,마포구 망원동 496,37.5534332,126.9048551,335.45,101.47
2013,11470,양천구,10100,신정동,1,대지,1002,13,3.0,20130225,전세,48.33,15000,0,(1002-13),2002.0,연립다세대,양천구 신정동 1002-13,37.5236673,126.8624321,310.37,93.89
2021,11560,영등포구,11000,여의도동,1,대지,14,21,9.0,20210203,월세,36.53,5000,50,엘지여의도에클라트,2003.0,오피스텔,영등포구 여의도동 14-21,37.5299224,126.9191736,136.87,41.4
2015,11170,용산구,13100,한남동,1,대지,726,499,3.0,20150826,전세,63.17,25000,0,남산하이츠빌(A),2002.0,연립다세대,용산구 한남동 726-499,37.5442401,127.0027089,395.76,119.72
2016,11500,강서구,10300,화곡동,1,대지,1058,14,2.0,20160407,전세,63.38,20000,0,보광아트빌가동,2002.0,연립다세대,강서구 화곡동 1058-14,37.5447983,126.8419243,315.56,95.46
2022,11215,광진구,10300,구의동,1,대지,220,213,2.0,20220730,월세,42.84,3000,55,영동빌라(220-213),1991.0,연립다세대,광진구 구의동 220-213,37.5394402,127.0900019,70.03,21.18
2017,11530,구로구,10100,신도림동,1,대지,692,0,3.0,20170625,전세,59.86,54000,0,디큐브시티,2011.0,아파트,구로구 신도림동 692,37.5085845,126.8888977,902.1,272.89
2021,11350,노원구,10600,중계동,1,대지,502,1,4.0,20210306,전세,39.78,22000,0,중계그린1단지,1990.0,아파트,노원구 중계동 502-1,37.6443709,127.0632819,553.04,167.3
2019,11305,강북구,10300,수유동,1,대지,279,74,2.0,20190131,월세,14.86,5000,20,수유다우아트리체,2018.0,아파트,강북구 수유동 279-74,37.6482375,127.0153182,336.47,101.78
2014,11680,강남구,10300,개포동,1,대지,141,0,4.0,20140923,전세,56.57,15000,0,개포주공1단지,1982.0,아파트,강남구 개포동 141,37.4785022,127.0615383,265.16,80.21
2022,11650,서초구,10100,방배동,1,대지,1344,0,13.0,20220628,전세,59.94,61950,0,방배1차현대홈타운,1999.0,아파트,서초구 방배동 1344,37.4884387,126.9839012,1033.53,312.64
2018,11710,송파구,11100,방이동,1,대지,193,12,5.0,20180323,전세,20.98,16000,0,(193-12),2017.0,연립다세대,송파구 방이동 193-12,37.5118161,127.1238763,762.63,230.7
2016,11680,강남구,11800,도곡동,1,대지,467,0,41.0,20160301,월세,84.15,78000,88,타워팰리스1,2002.0,아파트,강남구 도곡동 467,37.4882228,127.0544393,926.92,280.39
2014,11620,관악구,10100,봉천동,1,대지,635,349,1.0,20141117,전세,74.19,16000,0,경천빌라,1997.0,연립다세대,관악구 봉천동 635-349,37.4877296,126.9409145,215.66,65.24
2018,11740,강동구,10900,천호동,1,대지,391,11,3.0,20180731,월세,39.77,8000,40,건우빌,2016.0,연립다세대,강동구 천호동 391-11,37.5440585,127.1297384,201.16,60.85
2021,11470,양천구,10200,목동,1,대지,902,0,4.0,20210202,전세,95.4,69000,0,목동신시가지2,1986.0,아파트,양천구 목동 902,37.5374761,126.8759409,723.27,218.79
2014,11650,서초구,10100,방배동,1,대지,815,12,4.0,20140918,월세,19.06,3000,40,바로스빌,2011.0,연립다세대,서초구 방배동 815-12,37.4912995,126.9897992,157.4,47.61
2019,11710,송파구,10100,잠실동,1,대지,19,0,3.0,20191227,전세,84.8,83000,0,잠실엘스,2008.0,아파트,송파구 잠실동 19,37.5140688,127.0813814,978.77,296.08
2021,11500,강서구,10300,화곡동,1,대지,459,15,5.0,20210702,전세,38.42,12600,0,청송평화하이맨션(459-15),2010.0,연립다세대,강서구 화곡동 459-15,37.5356398,126.8538477,327.95,99.21
2019,11110,종로구,16200,효제동,1,대지,65,2,9.0,20190105,전세,18.74,16500,0,포레스트힐시티,2017.0,아파트,종로구 효제동 65-2,37.5742158,127.0018345,880.47,266.34
2011,11650,서초구,10800,서초동,1,대지,1593,7,12.0,20110210,전세,43.2,17000,0,서초이오빌,2003.0,아파트,서초구 서초동 1593-7,37.4865561,127.0128914,393.52,119.04
2013,11290,성북구,10300,돈암동,1,대지,15,1,9.0,20130215,전세,84.59,21000,0,돈암동삼성,1999.0,아파트,성북구 돈암동 15-1,37.5990277,127.0233139,248.26,75.1
2022,11470,양천구,10100,신정동,1,대지,1316,0,11.0,20220713,전세,84.86,28743,0,이펜하우스3단지,2011.0,아파트,양천구 신정동 1316,37.5125185,126.8308025,338.71,102.46
2015,11710,송파구,10200,신천동,1,대지,7,18,21.0,20151124,월세,166.7,20000,300,롯데캐슬골드,2005.0,아파트,송파구 신천동 7-18,37.5144538,127.1007352,119.98,36.29
2014,11650,서초구,10700,반포동,1,대지,715,19,2.0,20140405,전세,24.83,12000,0,세종빌리지5차,2011.0,연립다세대,서초구 반포동 715-19,37.5074111,127.0184105,483.29,146.19
2018,11680,강남구,11200,자곡동,1,대지,651,0,3.0,20180226,전세,25.57,15000,0,강남유탑유블레스,2014.0,오피스텔,강남구 자곡동 651,37.4735878,127.1030378,586.62,177.45
2022,11740,강동구,11000,강일동,1,대지,701,0,10.0,20221220,월세,49.9,3811,25,강일리버파크8단지,2009.0,아파트,강동구 강일동 701,37.5615237,127.1768781,76.37,23.1
2014,11320,도봉구,10700,창동,1,대지,825,0,5.0,20141119,전세,84.45,26000,0,북한산아이파크5차,2004.0,아파트,도봉구 창동 825,37.6579094,127.0436338,307.87,93.13
2013,11200,성동구,11100,금호동3가,1,대지,917,0,2.0,20131009,월세,84.92,10000,120,금호1차푸르지오,2005.0,아파트,성동구 금호동3가 917,37.55056039999999,127.0207463,117.76,35.62
2014,11560,영등포구,11200,당산동2가,1,대지,164,0,18.0,20131123,전세,82.77,31000,0,당산2가현대홈타운,1994.0,아파트,영등포구 당산동2가 164,37.5235067,126.8948802,374.53,113.3
2019,11410,서대문구,12000,남가좌동,1,대지,382,0,10.0,20190910,전세,84.97,50000,0,DMC파크뷰자이4단지,2015.0,아파트,서대문구 남가좌동 382,37.5716972,126.9147863,588.44,178.0
2018,11500,강서구,10900,방화동,1,대지,819,0,3.0,20181127,전세,133.98,41000,0,개화,1994.0,아파트,강서구 방화동 819,37.5807525,126.8125415,306.02,92.57
2012,11740,강동구,10100,명일동,1,대지,44,0,2.0,20121128,전세,112.93,31000,0,신동아,1986.0,아파트,강동구 명일동 44,37.5537384,127.1521093,274.51,83.04
2022,11710,송파구,11200,오금동,1,대지,165,0,8.0,20220521,전세,45.77,34000,0,상아2차아파트,1988.0,아파트,송파구 오금동 165,37.4979382,127.1367276,742.84,224.71
2018,11740,강동구,10100,명일동,1,대지,257,0,5.0,20171216,전세,83.52,39000,0,고덕주공9,1985.0,아파트,강동구 명일동 257,37.5479154,127.1508631,466.95,141.25
2019,11710,송파구,11100,방이동,1,대지,217,0,13.0,20190823,월세,84.92,35000,40,대림,1985.0,아파트,송파구 방이동 217,37.507541,127.1241693,412.15,124.68
2020,11620,관악구,10100,봉천동,1,대지,729,24,10.0,20200501,월세,49.21,1000,65,캐릭터 그린빌,2000.0,오피스텔,관악구 봉천동 729-24,37.4917974,126.9254279,20.32,6.15
2018,11680,강남구,10600,대치동,1,대지,316,0,1.0,20180808,전세,84.43,50000,0,은마,1979.0,아파트,강남구 대치동 316,37.4974176,127.0653272,592.21,179.14
2016,11650,서초구,10800,서초동,1,대지,1593,7,19.0,20160822,전세,58.48,38000,0,서초이오빌,2003.0,아파트,서초구 서초동 1593-7,37.4865561,127.0128914,649.79,196.56
2014,11710,송파구,11100,방이동,1,대지,117,16,4.0,20140811,전세,76.01,26000,0,한라빌라,2000.0,연립다세대,송파구 방이동 117-16,37.5096018,127.1151323,342.06,103.47
2012,11215,광진구,10100,중곡동,1,대지,106,31,3.0,20121219,전세,37.24,12500,0,중원아트빌102,2002.0,연립다세대,광진구 중곡동 106-31,37.5560817,127.0938742,335.66,101.54
2011,11620,관악구,10200,신림동,1,대지,569,7,5.0,20110610,전세,67.81,16000,0,늘푸른빌,2008.0,연립다세대,관악구 신림동 569-7,37.4825321,126.9072795,235.95,71.38
2022,11710,송파구,10600,삼전동,1,대지,94,6,2.0,20220806,전세,43.08,27000,0,홈토피아(94-6),2008.0,연립다세대,송파구 삼전동 94-6,37.5052115,127.0927395,626.74,189.59
2013,11620,관악구,10200,신림동,1,대지,697,20,1.0,20130803,전세,38.84,7000,0,진성빌라,1992.0,연립다세대,관악구 신림동 697-20,37.4672037,126.9194887,180.23,54.52
2016,11320,도봉구,10600,방학동,1,대지,603,18,3.0,20151128,전세,46.66,9800,0,아름빌B,2007.0,연립다세대,도봉구 방학동 603-18,37.6681158,127.0338408,210.03,63.53
2017,11320,도봉구,10500,쌍문동,1,대지,388,33,4.0,20171021,전세,50.58,17000,0,한양1,1986.0,아파트,도봉구 쌍문동 388-33,37.6459236,127.0305377,336.1,101.67
2022,11290,성북구,13600,하월곡동,1,대지,90,260,7.0,20220414,전세,14.35,15960,0,갤럭시하월곡,2020.0,오피스텔,성북구 하월곡동 90-260,37.6040829,127.0328267,1112.2,336.44
2022,11680,강남구,10600,대치동,1,대지,917,12,2.0,20220209,전세,32.76,17000,0,새롬하이빌,2002.0,연립다세대,강남구 대치동 917-12,37.5002973,127.0548471,518.93,156.97
2017,11680,강남구,10100,역삼동,1,대지,706,24,10.0,20170202,전세,30.53,18000,0,진넥스빌2,2003.0,아파트,강남구 역삼동 706-24,37.5017729,127.0439569,589.58,178.35
2019,11500,강서구,10500,마곡동,1,대지,760,0,12.0,20190325,전세,22.35,17000,0,마곡나루역보타닉푸르지오시티,2017.0,오피스텔,강서구 마곡동 760,37.5673178,126.8270022,760.63,230.09
2018,11440,마포구,11200,현석동,1,대지,225,0,4.0,20180526,전세,59.96,54000,0,래미안웰스트림,2016.0,아파트,마포구 현석동 225,37.543211,126.9355511,900.6,272.43
2019,11710,송파구,10500,석촌동,1,대지,246,5,2.0,20190712,전세,29.57,26000,0,드림하우스(246-5),2019.0,연립다세대,송파구 석촌동 246-5,37.50273869999999,127.1013508,879.27,265.98
2020,11260,중랑구,10600,신내동,1,대지,281,1,3.0,20200619,월세,33.24,15000,5,블랑쉬에,2014.0,연립다세대,중랑구 신내동 281-1,37.61819750000001,127.1014918,451.26,136.51
2015,11170,용산구,12200,문배동,1,대지,17,1,13.0,20150411,월세,76.02,15000,90,지오베르크,2004.0,아파트,용산구 문배동 17-1,37.5374393,126.9673618,197.32,59.69
2019,11380,은평구,10900,신사동,1,대지,371,0,2.0,20190708,전세,84.99,37000,0,두산위브2차,2011.0,아파트,은평구 신사동 371,37.5987695,126.9071691,435.35,131.69
2022,11620,관악구,10300,남현동,1,대지,602,97,3.0,20220611,전세,61.18,37000,0,은혜빌라트,2004.0,연립다세대,관악구 남현동 602-97,37.4724646,126.9775021,604.77,182.94
2015,11215,광진구,10500,자양동,1,대지,227,7,6.0,20150705,전세,127.95,85000,0,더샵스타시티,2007.0,아파트,광진구 자양동 227-7,37.5378028,127.0726322,664.32,200.96
2014,11410,서대문구,11700,연희동,1,대지,739,0,20.0,20140811,전세,59.58,23000,0,대우푸르지오,2002.0,아파트,서대문구 연희동 739,37.5615201,126.929515,386.04,116.78
2015,11620,관악구,10200,신림동,1,대지,1439,30,4.0,20151029,월세,11.76,3000,30,삼협필하우스-Ⅵ,2012.0,연립다세대,관악구 신림동 1439-30,37.487479,126.9266341,255.1,77.17
2018,11650,서초구,10200,양재동,1,대지,137,1,6.0,20180103,전세,84.58,48000,0,우성112,1991.0,아파트,서초구 양재동 137-1,37.4751588,127.0327267,567.51,171.67
2016,11200,성동구,10400,도선동,1,대지,329,1,5.0,20160606,월세,12.6,7000,25,에코하우스(1동),2011.0,연립다세대,성동구 도선동 329-1,37.5650533,127.0321047,555.56,168.06
2018,11560,영등포구,10900,영등포동8가,1,대지,35,1,14.0,20180209,월세,23.89,1000,67,리마크빌 영등포,2016.0,오피스텔,영등포구 영등포동8가 35-1,37.5267486,126.9050364,41.86,12.66
2017,11620,관악구,10200,신림동,1,대지,1735,0,7.0,20170122,전세,114.7,39000,0,관악산휴먼시아2단지,2008.0,아파트,관악구 신림동 1735,37.4591086,126.920039,340.02,102.86
2013,11110,종로구,10900,누상동,1,대지,67,0,3.0,20130105,전세,70.62,25000,0,EHAUS,2004.0,연립다세대,종로구 누상동 67,37.5804252,126.9671898,354.01,107.09
2014,11260,중랑구,10300,중화동,1,대지,450,0,12.0,20140220,전세,84.03,25000,0,한신아파트(103~109),1997.0,아파트,중랑구 중화동 450,37.5971492,127.0819073,297.51,90.0
2018,11410,서대문구,11900,북가좌동,1,대지,280,5,4.0,20180529,전세,82.8,21000,0,미성맨션,1994.0,연립다세대,서대문구 북가좌동 280-5,37.58180650000001,126.9154742,253.62,76.72
2019,11680,강남구,10600,대치동,1,대지,511,0,9.0,20191108,월세,84.96,15000,150,한보미도맨션2,1985.0,아파트,강남구 대치동 511,37.4933928,127.0673501,176.55,53.41
2019,11410,서대문구,10900,현저동,1,대지,200,0,1.0,20190712,월세,84.87,30000,40,독립문극동(200-0),1998.0,아파트,서대문구 현저동 200,37.5720344,126.9567674,353.48,106.93
2014,11140,중구,14400,장충동2가,1,대지,193,250,4.0,20140125,월세,20.34,2000,40,그린타운,2001.0,연립다세대,중구 장충동2가 193-250,37.5585161,127.0022408,98.33,29.74
2011,11740,강동구,10900,천호동,1,대지,46,20,4.0,20110808,전세,72.32,22000,0,테라칸하우스2차,2002.0,연립다세대,강동구 천호동 46-20,37.5436529,127.1411893,304.2,92.02
2016,11470,양천구,10300,신월동,1,대지,454,2,1.0,20160303,전세,65.26,10000,0,세일맨션,1982.0,연립다세대,양천구 신월동 454-2,37.5269299,126.8463969,153.23,46.35
2012,11440,마포구,12500,성산동,1,대지,601,0,14.0,20120321,전세,84.55,27000,0,성산월드타운대림,2004.0,아파트,마포구 성산동 601,37.5693435,126.9082436,319.34,96.6
2014,11320,도봉구,10700,창동,1,대지,347,0,14.0,20140616,전세,79.07,24500,0,창동주공3단지(해등마을),1990.0,아파트,도봉구 창동 347,37.6500627,127.0442013,309.85,93.73
2022,11710,송파구,10700,가락동,1,대지,77,4,10.0,20220817,월세,39.49,20000,5,송파KCC웰츠타워,2011.0,오피스텔,송파구 가락동 77-4,37.4957234,127.1221502,506.46,153.2
2020,11230,동대문구,10200,용두동,1,대지,39,535,5.0,20200601,전세,27.31,22000,0,그린캐슬,2019.0,연립다세대,동대문구 용두동 39-535,37.5767292,127.0424647,805.57,243.68
2019,11680,강남구,10500,삼성동,1,대지,50,0,1.0,20190316,전세,84.24,83000,0,현대힐스테이트2단지,2008.0,아파트,강남구 삼성동 50,37.5138585,127.051486,985.28,298.05
2017,11380,은평구,11000,증산동,1,대지,244,0,3.0,20171127,전세,84.99,33000,0,DMC우방,2000.0,아파트,은평구 증산동 244,37.5818673,126.9029906,388.28,117.45
2013,11740,강동구,10200,고덕동,1,대지,499,0,2.0,20130219,전세,114.98,40000,0,고덕 아이파크,2011.0,아파트,강동구 고덕동 499,37.5589299,127.1552406,347.89,105.24
2013,11440,마포구,12300,망원동,1,대지,472,2,-1.0,20111104,전세,36.89,5500,0,상명주택,1979.0,연립다세대,마포구 망원동 472-2,37.5624314,126.9038026,149.09,45.1
2011,11410,서대문구,11700,연희동,1,대지,723,24,2.0,20110228,전세,37.62,5500,0,연백빌라,1986.0,연립다세대,서대문구 연희동 723-24,37.5761815,126.9331038,146.2,44.23
2021,11290,성북구,13800,장위동,1,대지,231,197,3.0,20211009,전세,48.94,13650,0,반석그린빌,2002.0,연립다세대,성북구 장위동 231-197,37.61365139999999,127.0382606,278.91,84.37
2019,11560,영등포구,10200,영등포동1가,1,대지,40,1,8.0,20190911,전세,84.37,38000,0,창방누리애,2006.0,아파트,영등포구 영등포동1가 40-1,37.5173446,126.9143491,450.4,136.25
2020,11350,노원구,10200,월계동,1,대지,379,17,3.0,20200721,월세,15.68,1000,50,모두스타빌,2020.0,오피스텔,노원구 월계동 379-17,37.6234659,127.0606631,63.78,19.29
2012,11380,은평구,10300,불광동,1,대지,346,86,4.0,20120423,전세,80.5,15000,0,노블캐슬,2009.0,연립다세대,은평구 불광동 346-86,37.6199211,126.926995,186.34,56.37
2012,11320,도봉구,10600,방학동,1,대지,712,9,3.0,20120920,전세,37.46,5500,0,청아하이츠빌라A동,1992.0,연립다세대,도봉구 방학동 712-9,37.6623082,127.0464079,146.82,44.41
2020,11215,광진구,10700,화양동,1,대지,17,92,3.0,20200813,전세,33.71,24000,0,세종에버그린,2018.0,오피스텔,광진구 화양동 17-92,37.5465237,127.0692333,711.95,215.37
2014,11380,은평구,10700,응암동,1,대지,696,29,0.0,20131114,월세,29.16,300,30,(696-29),1986.0,연립다세대,은평구 응암동 696-29,37.5857105,126.9174115,10.29,3.11
2019,11710,송파구,11400,마천동,1,대지,283,56,4.0,20191226,전세,39.64,12000,0,동구빌라,1997.0,연립다세대,송파구 마천동 283-56,37.4934506,127.1568659,302.72,91.57
2020,11545,금천구,10100,가산동,1,대지,144,5,3.0,20200917,월세,29.98,1000,80,G밸리 노블루체 스위트,2020.0,오피스텔,금천구 가산동 144-5,37.4766269,126.8909939,33.36,10.09
2015,11200,성동구,10700,행당동,1,대지,347,0,4.0,20141210,전세,114.94,46000,0,대림e-편한세상,2000.0,아파트,성동구 행당동 347,37.5579013,127.0271186,400.21,121.06
2013,11170,용산구,11900,효창동,1,대지,5,577,2.0,20130518,전세,80.27,23000,0,(5-577),2009.0,연립다세대,용산구 효창동 5-577,37.5397724,126.9619437,286.53,86.68
2021,11710,송파구,10100,잠실동,1,대지,212,15,5.0,20211120,전세,27.51,27000,0,GOODPEOPLE,2015.0,연립다세대,송파구 잠실동 212-15,37.50785279999999,127.08463,981.46,296.89
2015,11200,성동구,10200,하왕십리동,1,대지,990,0,12.0,20150529,전세,94.46,35000,0,한신무학,1989.0,아파트,성동구 하왕십리동 990,37.5623522,127.0283789,370.53,112.08
2020,11710,송파구,10400,송파동,1,대지,86,6,2.0,20200925,월세,22.88,1000,42,행운주택,2002.0,연립다세대,송파구 송파동 86-6,37.5049574,127.1089144,43.71,13.22
2022,11380,은평구,10800,역촌동,1,대지,45,19,5.0,20221018,전세,44.9,21000,0,아트빌하우스,2010.0,연립다세대,은평구 역촌동 45-19,37.6063379,126.9145514,467.71,141.48
2020,11740,강동구,10900,천호동,1,대지,210,3,2.0,20191223,월세,51.75,2363,31,SoRihouse,2018.0,연립다세대,강동구 천호동 210-3,37.5424646,127.1343667,45.66,13.81
2013,11740,강동구,10700,암사동,1,대지,414,2,6.0,20130105,전세,59.99,25000,0,롯데캐슬퍼스트,2008.0,아파트,강동구 암사동 414-2,37.5564401,127.1420345,416.74,126.06
2015,11590,동작구,10100,노량진동,1,대지,325,0,6.0,20150921,월세,59.67,5000,90,신동아리버파크,2001.0,아파트,동작구 노량진동 325,37.507425,126.9451235,83.79,25.35
2016,11500,강서구,10900,방화동,1,대지,849,0,5.0,20160203,월세,17.91,1000,40,벽산에어트리움,2003.0,오피스텔,강서구 방화동 849,37.572356,126.806952,55.83,16.89
2022,11440,마포구,10500,용강동,1,대지,502,0,6.0,20220623,월세,36.18,3420,17,래미안마포리버웰,2015.0,아파트,마포구 용강동 502,37.5423426,126.9418691,94.53,28.59
2022,11410,서대문구,12000,남가좌동,1,대지,376,0,14.0,20220524,전세,114.9,65000,0,남가좌동현대,1999.0,아파트,서대문구 남가좌동 376,37.5749915,126.920126,565.71,171.13
2015,11380,은평구,10400,갈현동,1,대지,519,5,5.0,20150306,월세,27.63,3000,50,미래하이빌,2014.0,연립다세대,은평구 갈현동 519-5,37.6178401,126.9123922,108.58,32.84
2021,11140,중구,13700,필동1가,1,대지,22,2,10.0,20210108,전세,26.44,16000,0,스타빌딩,2003.0,오피스텔,중구 필동1가 22-2,37.5608405,126.9922271,605.14,183.06
2016,11710,송파구,10800,문정동,1,대지,150,0,3.0,20161208,전세,84.71,52000,0,올림픽훼밀리타운,1988.0,아파트,송파구 문정동 150,37.4885195,127.1143775,613.86,185.69
2021,11200,성동구,10700,행당동,1,대지,347,0,11.0,20210127,전세,59.96,40000,0,대림e-편한세상,2000.0,아파트,성동구 행당동 347,37.5579013,127.0271186,667.11,201.8
2020,11500,강서구,10500,마곡동,1,대지,760,0,13.0,20200706,전세,42.65,33000,0,마곡나루역보타닉푸르지오시티,2017.0,오피스텔,강서구 마곡동 760,37.5673178,126.8270022,773.74,234.06
2015,11650,서초구,10600,잠원동,1,대지,74,0,5.0,20150728,전세,104.74,58000,0,신반포14,1983.0,아파트,서초구 잠원동 74,37.5087872,127.0022868,553.75,167.51
2012,11710,송파구,10100,잠실동,1,대지,44,0,24.0,20120322,전세,59.97,41000,0,레이크팰리스,2006.0,아파트,송파구 잠실동 44,37.508561,127.0948204,683.68,206.81
2020,11710,송파구,10900,장지동,1,대지,844,0,12.0,20200224,월세,49.93,4854,18,송파파인타운7단지,2007.0,아파트,송파구 장지동 844,37.4791473,127.1308194,97.22,29.41
2014,11710,송파구,11100,방이동,1,대지,117,10,3.0,20140531,월세,35.94,15000,5,(117-10),2003.0,연립다세대,송파구 방이동 117-10,37.5095449,127.1149507,417.36,126.25
2021,11710,송파구,10700,가락동,1,대지,4,9,-1.0,20210205,전세,42.15,12000,0,목화빌라,2001.0,연립다세대,송파구 가락동 4-9,37.5035079,127.1238305,284.7,86.12
2022,11560,영등포구,12500,양평동1가,1,대지,120,15,3.0,20220824,전세,29.99,37100,0,세전프라임,2020.0,연립다세대,영등포구 양평동1가 120-15,37.5241638,126.8894895,1237.08,374.22
2018,11560,영등포구,11800,도림동,1,대지,265,1,10.0,20180521,전세,45.36,22500,0,도림동 하나아파텔(1차),2003.0,오피스텔,영등포구 도림동 265-1,37.5078855,126.895959,496.03,150.05
2020,11650,서초구,10200,양재동,1,대지,160,2,6.0,20200711,전세,84.69,55000,0,우성KBS(113동),1996.0,아파트,서초구 양재동 160-2,37.4774968,127.0290616,649.43,196.45
2018,11650,서초구,10300,우면동,1,대지,764,0,7.0,20180516,전세,30.89,21000,0,계룡리슈빌S,2014.0,아파트,서초구 우면동 764,37.4564609,127.016237,679.83,205.65
2011,11650,서초구,10800,서초동,1,대지,1507,14,3.0,20110327,전세,72.25,21000,0,(1507-14),2009.0,연립다세대,서초구 서초동 1507-14,37.48757519999999,127.0054526,290.66,87.92
2013,11500,강서구,10400,가양동,1,대지,1485,0,10.0,20130130,월세,58.65,2000,90,가양6단지,1992.0,아파트,강서구 가양동 1485,37.5632287,126.8592942,34.1,10.32
2017,11545,금천구,10200,독산동,1,대지,1006,64,3.0,20170405,전세,38.56,20000,0,현대힐타운,2016.0,오피스텔,금천구 독산동 1006-64,37.4655644,126.89422,518.67,156.9
2011,11170,용산구,13600,보광동,1,대지,3,256,,20110107,월세,57.0,6000,5,(3-256),1995.0,연립다세대,용산구 보광동 3-256,37.530196,127.0028359,105.26,31.84
2013,11290,성북구,11300,삼선동3가,1,대지,116,0,13.0,20130928,전세,116.86,47000,0,삼선에스케이뷰,2012.0,아파트,성북구 삼선동3가 116,37.5873117,127.0116435,402.19,121.66
2022,11440,마포구,10100,아현동,1,대지,777,0,9.0,20221029,전세,59.98,62000,0,마포래미안푸르지오3단지,2014.0,아파트,마포구 아현동 777,37.5555928,126.9536568,1033.68,312.69
2016,11200,성동구,10700,행당동,1,대지,300,9,2.0,20160116,전세,29.58,11800,0,드림파크,2003.0,연립다세대,성동구 행당동 300-9,37.5597027,127.0304064,398.92,120.67
2021,11470,양천구,10100,신정동,1,대지,329,0,14.0,20210313,전세,55.02,33500,0,목동신시가지14,1987.0,아파트,양천구 신정동 329,37.5161905,126.8703376,608.87,184.18
2019,11740,강동구,10200,고덕동,1,대지,312,0,4.0,20190330,전세,84.9,42000,0,배재현대,1995.0,아파트,강동구 고덕동 312,37.556517,127.1521973,494.7,149.65
2020,11380,은평구,11400,진관동,1,대지,92,0,3.0,20200611,전세,84.89,43500,0,은평뉴타운 제각말 푸르지오(5-4단지),2010.0,아파트,은평구 진관동 92,37.634763,126.9167205,512.43,155.01
2022,11680,강남구,10100,역삼동,1,대지,755,4,24.0,20221022,월세,59.61,60000,140,e-편한세상,2005.0,아파트,강남구 역삼동 755-4,37.4987773,127.0498786,1006.54,304.48
2020,11290,성북구,13500,종암동,1,대지,134,1,13.0,20201021,월세,40.87,5663,11,"래미안종암3차(임대111동,112동,134-1)",2011.0,아파트,성북구 종암동 134-1,37.6011081,127.0388168,138.56,41.91
2022,11140,중구,16800,순화동,1,대지,217,0,10.0,20220521,월세,42.37,35000,40,덕수궁롯데캐슬,2016.0,아파트,중구 순화동 217,37.5635909,126.9703714,826.06,249.88
2021,11500,강서구,10500,마곡동,1,대지,748,0,6.0,20210326,전세,84.98,70000,0,마곡13단지힐스테이트마스터,2017.0,아파트,강서구 마곡동 748,37.5577683,126.818376,823.72,249.18
2020,11305,강북구,10300,수유동,1,대지,558,7,3.0,20200229,전세,43.08,20000,0,삼일아트빌(558-7),2017.0,연립다세대,강북구 수유동 558-7,37.6458093,127.0104463,464.25,140.44
2022,11620,관악구,10100,봉천동,1,대지,30,2,13.0,20220412,전세,29.54,38000,0,라메르,2022.0,연립다세대,관악구 봉천동 30-2,37.484094,126.9559689,1286.39,389.13
2021,11380,은평구,11400,진관동,1,대지,65,0,16.0,20210515,전세,59.98,55700,0,은평뉴타운엘크루,2017.0,아파트,은평구 진관동 65,37.6426871,126.9212092,928.64,280.91
2016,11110,종로구,17500,숭인동,1,대지,1367,0,13.0,20160109,월세,22.55,2000,40,경일오피스텔,2005.0,오피스텔,종로구 숭인동 1367,37.574846,127.0229863,88.69,26.83
2016,11710,송파구,10100,잠실동,1,대지,19,0,3.0,20150504,전세,84.8,50000,0,잠실엘스,2008.0,아파트,송파구 잠실동 19,37.5140688,127.0813814,589.62,178.36
2022,11470,양천구,10200,목동,1,대지,318,200,4.0,20220830,전세,39.44,17000,0,명남아띠빌3차,2006.0,연립다세대,양천구 목동 318-200,37.5413324,126.8664568,431.03,130.39
2019,11620,관악구,10300,남현동,1,대지,1056,19,2.0,20190113,월세,87.42,10000,100,유림아트빌,2002.0,연립다세대,관악구 남현동 1056-19,37.47592210000001,126.975626,114.39,34.6
2020,11500,강서구,10300,화곡동,1,대지,341,3,6.0,20200703,전세,28.94,22000,0,베아트리스,2017.0,연립다세대,강서구 화곡동 341-3,37.5328761,126.8484352,760.19,229.96
2015,11530,구로구,10200,구로동,1,대지,1265,0,2.0,20150420,월세,44.64,2000,70,구로두산,1998.0,아파트,구로구 구로동 1265,37.4893405,126.8892594,44.8,13.55
2019,11590,동작구,10700,사당동,1,대지,216,8,3.0,20191005,전세,39.52,18500,0,샬롬빌,2008.0,연립다세대,동작구 사당동 216-8,37.4862176,126.9673404,468.12,141.61
2021,11380,은평구,10900,신사동,1,대지,5,46,1.0,20210719,전세,49.56,15000,0,아담빌라(5-46),1991.0,연립다세대,은평구 신사동 5-46,37.5996535,126.9114886,302.66,91.56
2016,11380,은평구,10200,녹번동,1,대지,144,34,7.0,20160629,월세,27.0,1000,63,연희하이빌-B동,2012.0,연립다세대,은평구 녹번동 144-34,37.6066766,126.923803,37.04,11.2
2019,11650,서초구,10600,잠원동,1,대지,58,16,8.0,20190720,전세,76.32,21000,0,신반포10,1981.0,아파트,서초구 잠원동 58-16,37.5126077,127.0140026,275.16,83.24
2018,11200,성동구,10500,마장동,1,대지,818,0,9.0,20181029,전세,59.91,32000,0,현대,1998.0,아파트,성동구 마장동 818,37.5694591,127.0425481,534.13,161.58
2021,11320,도봉구,10700,창동,1,대지,647,11,12.0,20210227,전세,91.42,31500,0,북한산현대홈시티(647-11),2005.0,오피스텔,도봉구 창동 647-11,37.6440128,127.0343356,344.56,104.23
2022,11260,중랑구,10100,면목동,1,대지,153,20,3.0,20220211,전세,55.98,26000,0,우정빌라,2004.0,연립다세대,중랑구 면목동 153-20,37.5861256,127.0818589,464.45,140.5
2018,11470,양천구,10200,목동,1,대지,903,0,13.0,20170817,전세,64.98,44000,0,목동신시가지3,1986.0,아파트,양천구 목동 903,37.5343588,126.8729492,677.13,204.83
2014,11230,동대문구,10200,용두동,1,대지,236,4,3.0,20140610,월세,30.29,3500,40,신설동역대우아이빌(236-4),2004.0,오피스텔,동대문구 용두동 236-4,37.5769676,127.0290141,115.55,34.95
2017,11710,송파구,10400,송파동,1,대지,54,6,2.0,20170712,월세,75.41,25000,25,양지레이크빌,2003.0,연립다세대,송파구 송파동 54-6,37.5104929,127.1092318,331.52,100.29
2018,11380,은평구,10200,녹번동,1,대지,76,38,2.0,20181110,월세,28.91,3000,60,한올채,2016.0,연립다세대,은평구 녹번동 76-38,37.6023257,126.9323181,103.77,31.39
2018,11440,마포구,10100,아현동,1,대지,777,0,13.0,20180801,전세,59.97,59000,0,마포래미안푸르지오2단지,2014.0,아파트,마포구 아현동 777,37.5555928,126.9536568,983.83,297.61
2015,11620,관악구,10100,봉천동,1,대지,1591,2,2.0,20151009,월세,59.78,21000,25,서울대입구삼성,1999.0,아파트,관악구 봉천동 1591-2,37.4761517,126.9520785,351.29,106.26
2022,11140,중구,13300,충무로5가,1,대지,90,0,7.0,20220209,전세,21.04,23500,0,충무로헤센스마트,2018.0,아파트,중구 충무로5가 90,37.5614077,126.9985014,1116.92,337.87
2022,11440,마포구,11100,신수동,1,대지,88,23,3.0,20221220,전세,45.62,23000,0,제이에스빌,2014.0,연립다세대,마포구 신수동 88-23,37.5485121,126.9386688,504.16,152.51
2022,11710,송파구,10700,가락동,1,대지,913,0,18.0,20220203,월세,39.1,13352,49,헬리오시티,2018.0,아파트,송파구 가락동 913,37.497519,127.1072265,341.48,103.3
2014,11680,강남구,11800,도곡동,1,대지,527,0,13.0,20140703,전세,114.99,103000,0,도곡렉슬,2006.0,아파트,강남구 도곡동 527,37.4935415,127.0505473,895.73,270.96
2021,11500,강서구,10600,내발산동,1,대지,668,2,5.0,20210208,전세,38.8,15000,0,로즈빌,2002.0,연립다세대,강서구 내발산동 668-2,37.5544867,126.836254,386.6,116.95
2013,11230,동대문구,10700,청량리동,1,대지,235,1,8.0,20130604,전세,170.31,27000,0,미주,1978.0,아파트,동대문구 청량리동 235-1,37.5839304,127.0468075,158.53,47.96
2012,11305,강북구,10300,수유동,1,대지,167,19,2.0,20120807,월세,32.24,3000,30,유성빌라(C동),1993.0,연립다세대,강북구 수유동 167-19,37.64331809999999,127.0293816,93.05,28.15
2020,11710,송파구,10200,신천동,1,대지,11,4,28.0,20200606,전세,108.32,118000,0,잠실푸르지오월드마크,2013.0,아파트,송파구 신천동 11-4,37.5174375,127.1035775,1089.36,329.53
2013,11620,관악구,10100,봉천동,1,대지,1713,0,18.0,20130820,전세,114.92,38000,0,낙성대현대홈타운,2002.0,아파트,관악구 봉천동 1713,37.4806966,126.9635471,330.66,100.03
2021,11290,성북구,13400,길음동,1,대지,1287,1,12.0,20201107,전세,59.93,56000,0,롯데캐슬골든힐스,2019.0,아파트,성북구 길음동 1287-1,37.608857,127.0159702,934.42,282.66
2019,11590,동작구,10200,상도동,1,대지,414,0,6.0,20190928,전세,32.8,25000,0,건영,1997.0,아파트,동작구 상도동 414,37.5071676,126.9497743,762.2,230.56
2017,11500,강서구,10100,염창동,1,대지,288,0,5.0,20161123,전세,84.9,32000,0,현대1,1994.0,아파트,강서구 염창동 288,37.552852,126.8751043,376.91,114.02
2020,11140,중구,16200,신당동,1,대지,333,184,2.0,20200601,전세,81.71,15000,0,서울빌라,1984.0,연립다세대,중구 신당동 333-184,37.5569722,127.016309,183.58,55.53
2012,11710,송파구,10500,석촌동,1,대지,60,7,2.0,20120305,전세,31.33,12500,0,우성주택,2002.0,연립다세대,송파구 석촌동 60-7,37.5034997,127.1008886,398.98,120.69
2021,11230,동대문구,10900,휘경동,1,대지,57,0,9.0,20170929,월세,39.97,2000,60,주공2,2001.0,아파트,동대문구 휘경동 57,37.5829867,127.0707472,50.04,15.14
2021,11200,성동구,10700,행당동,1,대지,375,0,9.0,20211022,전세,59.99,70000,0,두산위브,2009.0,아파트,성동구 행당동 375,37.5567042,127.03153,1166.86,352.98
2014,11740,강동구,10700,암사동,1,대지,503,16,2.0,20140127,전세,50.16,17000,0,(503-16),2013.0,연립다세대,강동구 암사동 503-16,37.5517048,127.1275787,338.92,102.52
2014,11500,강서구,10400,가양동,1,대지,1461,0,6.0,20140313,전세,49.56,17500,0,가양2단지(성지),1992.0,아파트,강서구 가양동 1461,37.5704953,126.8471746,353.11,106.81
2015,11440,마포구,12200,합정동,1,대지,450,33,3.0,20140516,전세,36.54,8000,0,성도빌라(450-33),1986.0,연립다세대,마포구 합정동 450-33,37.5506694,126.9042428,218.94,66.23
2021,11380,은평구,10700,응암동,1,대지,761,1,6.0,20210911,전세,32.16,4608,0,백련산힐스테이트3차311동(임대),2011.0,아파트,은평구 응암동 761-1,37.58899359999999,126.924563,143.28,43.34
2015,11500,강서구,10900,방화동,1,대지,648,57,4.0,20150624,전세,40.5,9000,0,현대파크빌B,2002.0,연립다세대,강서구 방화동 648-57,37.5671819,126.8072127,222.22,67.22
2014,11500,강서구,10300,화곡동,1,대지,1151,0,4.0,20141021,전세,84.98,27000,0,우장산한화꿈에그린,2004.0,아파트,강서구 화곡동 1151,37.5540072,126.8473926,317.72,96.11
2015,11680,강남구,10300,개포동,1,대지,12,0,6.0,20150205,전세,51.12,31000,0,삼익대청아파트,1992.0,아파트,강남구 개포동 12,37.4941844,127.0752156,606.42,183.44
2013,11560,영등포구,11700,당산동,1,대지,121,157,3.0,20130909,월세,30.94,2000,45,승리빌라(121-157),1994.0,연립다세대,영등포구 당산동 121-157,37.5262455,126.9094492,64.64,19.55
2019,11590,동작구,10100,노량진동,1,대지,56,14,8.0,20190625,월세,12.04,1000,50,필하우스(OH빌딩),2012.0,아파트,동작구 노량진동 56-14,37.5124819,126.9413325,83.06,25.12
2012,11380,은평구,10100,수색동,1,대지,415,1,4.0,20121030,월세,59.9,10000,30,대림한숲(DMC이편한세상),2003.0,아파트,은평구 수색동 415-1,37.5868439,126.9000225,166.94,50.5
2015,11215,광진구,10100,중곡동,1,대지,293,18,2.0,20141115,전세,24.13,13800,0,(293-18),2012.0,연립다세대,광진구 중곡동 293-18,37.5689005,127.0873484,571.9,173.0
2020,11305,강북구,10200,번동,1,대지,234,0,14.0,20200116,전세,84.79,25000,0,주공4단지,1991.0,아파트,강북구 번동 234,37.63085090000001,127.0392541,294.85,89.19
2022,11500,강서구,10300,화곡동,1,대지,98,103,2.0,20220503,전세,59.93,19400,0,소망빌라(98-103),2002.0,연립다세대,강서구 화곡동 98-103,37.5410056,126.8452225,323.71,97.92
2021,11200,성동구,10200,하왕십리동,1,대지,1070,0,18.0,20211130,전세,32.53,32000,0,센트라스,2016.0,오피스텔,성동구 하왕십리동 1070,37.56610999999999,127.0276467,983.71,297.57
2020,11440,마포구,10900,염리동,1,대지,45,0,11.0,20201204,전세,84.86,75000,0,마포자이3차,2018.0,아파트,마포구 염리동 45,37.5501969,126.9484852,883.81,267.35
2015,11440,마포구,12700,상암동,1,대지,1674,0,4.0,20150325,월세,49.62,6240,15,상암월드컵파크8단지,2008.0,아파트,마포구 상암동 1674,37.577604,126.8829009,125.76,38.04
2020,11680,강남구,10600,대치동,1,대지,316,0,10.0,20200319,전세,84.43,68000,0,은마,1979.0,아파트,강남구 대치동 316,37.4974176,127.0653272,805.4,243.63
2015,11680,강남구,10800,논현동,1,대지,79,5,6.0,20150326,전세,110.78,50000,0,삼성빌라트,1998.0,아파트,강남구 논현동 79-5,37.516454,127.0313135,451.35,136.53
2015,11650,서초구,10100,방배동,1,대지,880,7,1.0,20150404,전세,74.16,27000,0,(880-7),1997.0,연립다세대,서초구 방배동 880-7,37.489048,126.9965119,364.08,110.13
2017,11680,강남구,11500,수서동,1,대지,712,0,8.0,20171125,전세,97.63,70000,0,수서한아름,1993.0,아파트,강남구 수서동 712,37.4894697,127.1035761,716.99,216.89
2017,11230,동대문구,10600,장안동,1,대지,329,2,13.0,20170524,월세,59.54,8000,90,장안힐스테이트,2007.0,아파트,동대문구 장안동 329-2,37.5759642,127.0753503,134.36,40.64
2016,11440,마포구,11500,상수동,1,대지,398,0,3.0,20160529,전세,84.92,70000,0,래미안밤섬리베뉴Ⅱ,2014.0,아파트,마포구 상수동 398,37.5466413,126.9272231,824.31,249.35
2013,11530,구로구,11000,온수동,1,대지,45,32,2.0,20130718,전세,68.53,11000,0,성원빌라,1985.0,연립다세대,구로구 온수동 45-32,37.4897829,126.8232682,160.51,48.56
2017,11680,강남구,10600,대치동,1,대지,888,0,7.0,20170310,월세,59.96,20000,200,대치아이파크,2008.0,아파트,강남구 대치동 888,37.4950563,127.0545628,333.56,100.9
2021,11230,동대문구,10200,용두동,1,대지,791,0,5.0,20210917,전세,59.99,60000,0,용두두산위브,2009.0,아파트,동대문구 용두동 791,37.5734286,127.0362171,1000.17,302.55
2022,11620,관악구,10100,봉천동,1,대지,635,306,4.0,20220108,전세,49.89,25000,0,성강청안채,2014.0,연립다세대,관악구 봉천동 635-306,37.4884181,126.942421,501.1,151.58
2018,11380,은평구,10700,응암동,1,대지,694,1,15.0,20180711,전세,115.67,35000,0,우성,1988.0,아파트,은평구 응암동 694-1,37.5839481,126.9181454,302.58,91.53
2011,11680,강남구,11400,일원동,1,대지,711,0,11.0,20110525,전세,59.94,22000,0,수서,1992.0,아파트,강남구 일원동 711,37.4926339,127.0902837,367.03,111.03
2019,11470,양천구,10300,신월동,1,대지,987,1,11.0,20190704,전세,59.49,22000,0,신월시영,1988.0,아파트,양천구 신월동 987-1,37.5179066,126.8340997,369.81,111.87
2016,11650,서초구,10600,잠원동,1,대지,71,1,8.0,20160628,월세,84.54,55000,50,블루힐하우스,1999.0,아파트,서초구 잠원동 71-1,37.5119228,127.0059779,650.58,196.8
2022,11650,서초구,10800,서초동,1,대지,1588,5,14.0,20220305,전세,17.35,22000,0,디아레나서초,2020.0,아파트,서초구 서초동 1588-5,37.4857477,127.0138741,1268.01,383.57
2021,11470,양천구,10300,신월동,1,대지,124,5,4.0,20211011,전세,39.87,12000,0,태경아트빌라,2003.0,연립다세대,양천구 신월동 124-5,37.5308899,126.8347563,300.98,91.05
2014,11500,강서구,10800,공항동,1,대지,35,0,1.0,20140410,전세,63.47,14000,0,청도맨션가동,2001.0,연립다세대,강서구 공항동 35,37.5597582,126.8131572,220.58,66.72
2022,11470,양천구,10100,신정동,1,대지,319,17,8.0,20220305,전세,28.47,25200,0,헤리티지,2020.0,오피스텔,양천구 신정동 319-17,37.5191344,126.8691758,885.14,267.76
2014,11710,송파구,11200,오금동,1,대지,165,0,6.0,20140422,전세,50.72,22000,0,상아2차아파트,1988.0,아파트,송파구 오금동 165,37.4979382,127.1367276,433.75,131.21
2019,11440,마포구,10300,신공덕동,1,대지,3,3,12.0,20190523,전세,17.73,16000,0,블루마리오피스텔,2017.0,오피스텔,마포구 신공덕동 3-3,37.5468116,126.9570378,902.43,272.98
2016,11740,강동구,10600,둔촌동,1,대지,170,1,7.0,20160326,전세,99.61,25000,0,둔촌주공4단지,1980.0,아파트,강동구 둔촌동 170-1,37.5269355,127.1387509,250.98,75.92
2014,11500,강서구,10900,방화동,1,대지,875,0,9.0,20141001,전세,84.97,28000,0,방화동동부센트레빌(875번지),2003.0,아파트,강서구 방화동 875,37.57470199999999,126.8149759,329.53,99.68
2017,11320,도봉구,10700,창동,1,대지,676,36,4.0,20171108,전세,12.07,5500,0,청안PRIME,2013.0,연립다세대,도봉구 창동 676-36,37.6468902,127.0374914,455.68,137.84
2020,11350,노원구,10500,상계동,1,대지,670,0,4.0,20201007,월세,41.3,7000,33,상계주공9(고층),1988.0,아파트,노원구 상계동 670,37.663056,127.0600315,169.49,51.27
2018,11560,영등포구,11000,여의도동,1,대지,50,0,3.0,20180514,전세,79.24,27000,0,시범,1971.0,아파트,영등포구 여의도동 50,37.520693,126.9371057,340.74,103.07
2017,11740,강동구,10500,길동,1,대지,53,0,3.0,20170905,전세,59.65,25000,0,삼익파크맨션,1982.0,아파트,강동구 길동 53,37.5435291,127.1485909,419.11,126.78
2015,11620,관악구,10200,신림동,1,대지,501,12,3.0,20151031,월세,25.5,1000,38,헤븐빌리지,2015.0,연립다세대,관악구 신림동 501-12,37.4863438,126.9162058,39.22,11.86
2020,11680,강남구,10600,대치동,1,대지,933,0,2.0,20200603,전세,116.21,80000,0,한티(933-0),2004.0,아파트,강남구 대치동 933,37.4989901,127.057111,688.41,208.24
2014,11500,강서구,10900,방화동,1,대지,201,1,1.0,20111119,전세,51.28,10500,0,길훈,1989.0,아파트,강서구 방화동 201-1,37.56885150000001,126.8222319,204.76,61.94
2018,11710,송파구,10400,송파동,1,대지,91,11,4.0,20180510,전세,25.16,24000,0,팰리스빌,2016.0,연립다세대,송파구 송파동 91-11,37.5038479,127.1103691,953.9,288.55
2015,11530,구로구,10700,개봉동,1,대지,304,5,3.0,20150822,전세,29.73,13000,0,디자인골든빌,2014.0,연립다세대,구로구 개봉동 304-5,37.4933316,126.8545604,437.27,132.27
2021,11740,강동구,11000,강일동,1,대지,670,0,7.0,20210917,월세,49.9,5256,17,강일리버파크5단지,2009.0,아파트,강동구 강일동 670,37.5676186,127.1781885,105.33,31.86
2019,11380,은평구,10900,신사동,1,대지,29,56,5.0,20190713,월세,27.0,2000,50,올림푸스,2010.0,연립다세대,은평구 신사동 29-56,37.5964262,126.9106631,74.07,22.41
2014,11260,중랑구,10100,면목동,1,대지,1077,1,13.0,20140912,전세,44.35,16000,0,용마한신,1990.0,아파트,중랑구 면목동 1077-1,37.5813205,127.095949,360.77,109.13
2016,11620,관악구,10100,봉천동,1,대지,877,4,6.0,20160128,월세,12.81,3000,25,(877-4),2004.0,오피스텔,관악구 봉천동 877-4,37.4798978,126.9501436,234.19,70.84
2021,11320,도봉구,10700,창동,1,대지,347,0,13.0,20211029,전세,49.94,28500,0,창동주공3단지(해등마을),1990.0,아파트,도봉구 창동 347,37.6500627,127.0442013,570.68,172.63
2020,11500,강서구,10300,화곡동,1,대지,394,13,3.0,20200401,전세,55.9,13000,0,사랑빌라,1991.0,연립다세대,강서구 화곡동 394-13,37.5341998,126.8493618,232.56,70.35
2021,11470,양천구,10200,목동,1,대지,904,0,12.0,20210712,전세,47.25,33600,0,목동신시가지4,1986.0,아파트,양천구 목동 904,37.5319314,126.8715915,711.11,215.11
2013,11350,노원구,10200,월계동,1,대지,926,0,15.0,20130727,전세,84.94,18000,0,한일1,1999.0,아파트,노원구 월계동 926,37.6219703,127.0615611,211.91,64.1
2012,11215,광진구,10500,자양동,1,대지,680,28,2.0,20120810,전세,86.6,13000,0,동남연립나동,1985.0,연립다세대,광진구 자양동 680-28,37.5328861,127.0855965,150.12,45.41
2022,11350,노원구,10400,하계동,1,대지,354,0,16.0,20220503,전세,84.77,38850,0,학여울청구,1999.0,아파트,노원구 하계동 354,37.6363492,127.0613398,458.3,138.64
2014,11740,강동구,10800,성내동,1,대지,194,0,10.0,20131217,전세,33.71,17500,0,에스케이허브진,2004.0,아파트,강동구 성내동 194,37.5351568,127.1327274,519.13,157.04
2019,11710,송파구,11100,방이동,1,대지,35,4,12.0,20190920,월세,29.6,1000,70,I-SPACE 잠실2,2003.0,오피스텔,송파구 방이동 35-4,37.5161089,127.1095534,33.78,10.22
2019,11740,강동구,10700,암사동,1,대지,509,0,7.0,20181214,전세,72.85,41000,0,선사현대아파트,2000.0,아파트,강동구 암사동 509,37.552396,127.1258146,562.8,170.25
2021,11710,송파구,10100,잠실동,1,대지,35,0,11.0,20210415,월세,84.83,68250,53,트리지움,2007.0,아파트,송파구 잠실동 35,37.5098873,127.0895702,804.55,243.38
2022,11350,노원구,10600,중계동,1,대지,369,0,3.0,20220105,전세,44.52,15000,0,주공2,1992.0,아파트,노원구 중계동 369,37.6574759,127.0788045,336.93,101.92
2017,11710,송파구,11200,오금동,1,대지,82,9,4.0,20170620,전세,38.72,29000,0,숨결82,2017.0,연립다세대,송파구 오금동 82-9,37.5062293,127.1329735,748.97,226.56
2017,11560,영등포구,12600,양평동2가,1,대지,1,1,2.0,20170208,전세,71.47,26000,0,신동아하이팰리스,2005.0,오피스텔,영등포구 양평동2가 1-1,37.5218847,126.8846639,363.79,110.05
2022,11140,중구,16500,황학동,1,대지,876,0,6.0,20220119,전세,38.32,25900,0,하늘드리움2차,2016.0,오피스텔,중구 황학동 876,37.5666894,127.0219783,675.89,204.46
2017,11320,도봉구,10700,창동,1,대지,373,0,6.0,20170509,전세,41.3,13500,0,창동주공4단지,1991.0,아파트,도봉구 창동 373,37.6457208,127.0474634,326.88,98.88
2017,11500,강서구,10200,등촌동,1,대지,628,32,2.0,20170414,전세,63.16,26000,0,강변샤르망2단지,2005.0,오피스텔,강서구 등촌동 628-32,37.5592477,126.8575299,411.65,124.53
2012,11740,강동구,10600,둔촌동,1,대지,174,1,9.0,20120517,전세,96.75,20000,0,둔촌주공3단지,1980.0,아파트,강동구 둔촌동 174-1,37.5215436,127.1368448,206.72,62.53
2020,11410,서대문구,11900,북가좌동,1,대지,1,3,3.0,20200616,전세,72.06,10000,0,신풍,1982.0,연립다세대,서대문구 북가좌동 1-3,37.5819432,126.9200408,138.77,41.98
2011,11620,관악구,10100,봉천동,1,대지,1717,0,16.0,20111223,전세,59.58,24000,0,관악푸르지오,2004.0,아파트,관악구 봉천동 1717,37.4873109,126.9608651,402.82,121.85
2012,11440,마포구,12500,성산동,1,대지,213,16,2.0,20120828,전세,77.28,17000,0,용주하이츠맨션(가),2003.0,연립다세대,마포구 성산동 213-16,37.5617925,126.9073367,219.98,66.54
2020,11290,성북구,13800,장위동,1,대지,232,124,4.0,20200514,전세,28.76,19000,0,(232-124),2019.0,연립다세대,성북구 장위동 232-124,37.6144524,127.0473125,660.64,199.84
2020,11620,관악구,10100,봉천동,1,대지,42,21,4.0,20200330,전세,10.76,15700,0,샤르망파크,2019.0,오피스텔,관악구 봉천동 42-21,37.4850665,126.9549436,1459.11,441.38
2020,11710,송파구,10400,송파동,1,대지,52,2,2.0,20201121,전세,45.13,11000,0,(52-2),2010.0,연립다세대,송파구 송파동 52-2,37.5099834,127.1099524,243.74,73.73
2018,11590,동작구,10200,상도동,1,대지,264,170,2.0,20180124,전세,47.6,15500,0,탑시티빌,2008.0,연립다세대,동작구 상도동 264-170,37.4981528,126.9354332,325.63,98.5
2012,11545,금천구,10300,시흥동,1,대지,1026,0,16.0,20120504,월세,84.68,7000,85,남서울힐스테이트,2014.0,아파트,금천구 시흥동 1026,37.447804,126.9012343,82.66,25.01
2021,11350,노원구,10600,중계동,1,대지,358,2,3.0,20210225,전세,59.39,19950,0,주공4,1991.0,아파트,노원구 중계동 358-2,37.6553682,127.0769326,335.92,101.61
2016,11590,동작구,10800,대방동,1,대지,415,57,5.0,20160227,월세,12.17,1000,35,보라매이스트빌,2011.0,연립다세대,동작구 대방동 415-57,37.4987998,126.9213406,82.17,24.86
2022,11710,송파구,10700,가락동,1,대지,913,0,2.0,20220816,월세,84.99,60000,100,헬리오시티,2018.0,아파트,송파구 가락동 913,37.497519,127.1072265,705.97,213.55
2017,11740,강동구,11000,강일동,1,대지,699,0,14.0,20170424,전세,114.81,30660,0,강일리버파크9단지,2009.0,아파트,강동구 강일동 699,37.55985,127.1788258,267.05,80.78
2013,11560,영등포구,10100,영등포동,1,대지,647,0,15.0,20131009,전세,73.13,32000,0,영등포푸르지오,2002.0,아파트,영등포구 영등포동 647,37.51153310000001,126.90239,437.58,132.37
2019,11740,강동구,10200,고덕동,1,대지,688,0,17.0,20190213,전세,59.35,45000,0,래미안힐스테이트고덕,2016.0,아파트,강동구 고덕동 688,37.558949,127.1470826,758.21,229.36
2020,11620,관악구,10200,신림동,1,대지,1714,0,17.0,20180814,전세,58.55,25000,0,삼성산주공(주공3단지),2000.0,아파트,관악구 신림동 1714,37.462507,126.9261294,426.99,129.16
2020,11440,마포구,12300,망원동,1,대지,411,42,4.0,20200803,전세,42.94,37000,0,노블캐슬,2016.0,연립다세대,마포구 망원동 411-42,37.5560896,126.9049667,861.67,260.65
2012,11200,성동구,11300,옥수동,1,대지,250,0,3.0,20120806,전세,59.7,26000,0,삼성,1999.0,아파트,성동구 옥수동 250,37.54236179999999,127.014038,435.51,131.74
2021,11680,강남구,11800,도곡동,1,대지,527,0,18.0,20210402,월세,134.9,50000,550,도곡렉슬,2006.0,아파트,강남구 도곡동 527,37.4935415,127.0505473,370.64,112.12
2022,11680,강남구,10100,역삼동,1,대지,711,3,10.0,20220315,전세,60.0,56630,0,역삼자이,2016.0,아파트,강남구 역삼동 711-3,37.500442,127.0444842,943.83,285.51
2020,11710,송파구,10400,송파동,1,대지,161,0,10.0,20201118,전세,169.44,58000,0,미성맨션,1985.0,아파트,송파구 송파동 161,37.5059443,127.1192556,342.3,103.55
2020,11200,성동구,10100,상왕십리동,1,대지,811,0,14.0,20200704,전세,84.9,83000,0,텐즈힐(2구역),2014.0,아파트,성동구 상왕십리동 811,37.5693623,127.0247156,977.62,295.73
2022,11680,강남구,10100,역삼동,1,대지,735,15,5.0,20220114,전세,20.19,16480,0,(735-15),2014.0,오피스텔,강남구 역삼동 735-15,37.4985274,127.0334825,816.25,246.91
2011,11305,강북구,10300,수유동,1,대지,563,32,4.0,20110322,전세,39.6,6000,0,미도빌라,1995.0,연립다세대,강북구 수유동 563-32,37.645638,127.0074228,151.52,45.83
2015,11650,서초구,10800,서초동,1,대지,1682,0,10.0,20141130,전세,84.95,50000,0,서초래미안,2003.0,아파트,서초구 서초동 1682,37.4985559,127.0188871,588.58,178.05
2018,11710,송파구,10800,문정동,1,대지,86,4,4.0,20180215,전세,28.03,15000,0,(86-4),2003.0,연립다세대,송파구 문정동 86-4,37.4840217,127.1281605,535.14,161.88
2020,11680,강남구,10300,개포동,1,대지,1236,8,4.0,20200619,전세,18.3,13000,0,럭키하우스,2011.0,연립다세대,강남구 개포동 1236-8,37.4768241,127.0465335,710.38,214.89
2015,11620,관악구,10100,봉천동,1,대지,1712,0,3.0,20150718,전세,102.0,42000,0,관악드림(동아),2003.0,아파트,관악구 봉천동 1712,37.4897675,126.95062,411.76,124.56
2022,11500,강서구,10500,마곡동,1,대지,758,2,14.0,20220225,월세,21.43,3000,50,마곡일성트루엘플래닛,2016.0,오피스텔,강서구 마곡동 758-2,37.5686297,126.8257842,139.99,42.35
2022,11560,영등포구,12700,양평동3가,1,대지,37,3,2.0,20221111,월세,21.88,15000,35,더라임,2020.0,오피스텔,영등포구 양평동3가 37-3,37.5263731,126.8885022,685.56,207.38
2022,11680,강남구,11200,자곡동,1,대지,596,0,3.0,20220528,월세,23.98,1000,63,강남 더샵라르고,2014.0,오피스텔,강남구 자곡동 596,37.4754456,127.1048608,41.7,12.61
2021,11710,송파구,11200,오금동,1,대지,160,0,3.0,20210423,전세,73.59,43000,0,삼성,1989.0,아파트,송파구 오금동 160,37.4964531,127.1390597,584.32,176.76
2016,11650,서초구,10800,서초동,1,대지,1333,0,1.0,20160313,월세,89.73,21000,70,신동아아파트(1차),1978.0,아파트,서초구 서초동 1333,37.4921488,127.0239032,234.04,70.8
2018,11560,영등포구,13200,신길동,1,대지,170,28,4.0,20181130,전세,47.61,10000,0,진우빌라1,1993.0,연립다세대,영등포구 신길동 170-28,37.5144951,126.915801,210.04,63.54
2020,11530,구로구,10800,오류동,1,대지,156,86,3.0,20201125,전세,65.59,9000,0,우남산장(156-86),1986.0,연립다세대,구로구 오류동 156-86,37.48958289999999,126.8430085,137.22,41.51
2017,11740,강동구,10800,성내동,1,대지,46,23,8.0,20171123,월세,26.88,9500,60,더존예가A,2017.0,연립다세대,강동구 성내동 46-23,37.5369934,127.1243206,353.42,106.91
2016,11110,종로구,17500,숭인동,1,대지,1396,0,9.0,20160124,전세,21.62,12000,0,아이비씨 호텔 앤 오피스텔,2016.0,오피스텔,종로구 숭인동 1396,37.5732564,127.0228536,555.04,167.9
2019,11350,노원구,10300,공릉동,1,대지,441,135,4.0,20190516,전세,45.63,14000,0,441-135,2008.0,연립다세대,노원구 공릉동 441-135,37.6266259,127.0781807,306.82,92.81
2017,11650,서초구,10100,방배동,1,대지,924,9,3.0,20170605,전세,17.95,8000,0,(924-9),2013.0,연립다세대,서초구 방배동 924-9,37.4832508,126.9957749,445.68,134.82
2022,11200,성동구,10700,행당동,1,대지,293,8,6.0,20220612,전세,37.7,32524,0,K TOWER 2,,오피스텔,성동구 행당동 293-8,37.5605806,127.0338234,862.71,260.97
2020,11410,서대문구,11800,홍은동,1,대지,197,18,4.0,20200129,전세,51.78,5500,0,삼보빌라(197-18),1992.0,연립다세대,서대문구 홍은동 197-18,37.591779,126.9333403,106.22,32.13
2020,11215,광진구,10300,구의동,1,대지,546,7,17.0,20191203,전세,84.76,49000,0,구의강변우성아파트,1992.0,아파트,광진구 구의동 546-7,37.53533960000001,127.0929309,578.1,174.88
2021,11620,관악구,10200,신림동,1,대지,1568,23,2.0,20211108,월세,18.92,100,40,화인벨라까샤,2004.0,오피스텔,관악구 신림동 1568-23,37.4805937,126.91516,5.29,1.6
2016,11710,송파구,10800,문정동,1,대지,58,0,9.0,20160516,전세,59.21,30000,0,현대2,1995.0,아파트,송파구 문정동 58,37.4841462,127.1246052,506.67,153.27
2022,11440,마포구,12000,서교동,1,대지,494,0,12.0,20220803,월세,37.17,13760,70,서교동효성해링턴타워,2020.0,아파트,마포구 서교동 494,37.5507977,126.9167221,370.19,111.98
2018,11710,송파구,10500,석촌동,1,대지,172,16,4.0,20181003,전세,50.51,24000,0,스톤빌(172-16),2003.0,연립다세대,송파구 석촌동 172-16,37.505021,127.1044426,475.15,143.73
2019,11470,양천구,10200,목동,1,대지,917,0,3.0,20190322,전세,95.24,63000,0,목동파라곤,2004.0,오피스텔,양천구 목동 917,37.5295038,126.8751635,661.49,200.1
2016,11230,동대문구,11000,이문동,1,대지,264,95,1.0,20150827,월세,30.86,500,35,(264-95),1993.0,연립다세대,동대문구 이문동 264-95,37.6005234,127.0590732,16.2,4.9
2020,11740,강동구,10900,천호동,1,대지,573,0,5.0,20200331,전세,28.43,22000,0,강동리버스타운,2018.0,연립다세대,강동구 천호동 573,37.54310359999999,127.1290462,773.83,234.08
2020,11560,영등포구,10800,영등포동7가,1,대지,94,95,3.0,20200409,월세,31.95,300,45,(94-95),2018.0,오피스텔,영등포구 영등포동7가 94-95,37.5246414,126.9091977,9.39,2.84
2022,11350,노원구,10400,하계동,1,대지,284,0,7.0,20221027,전세,27.0,15650,0,한신1,1988.0,아파트,노원구 하계동 284,37.6378658,127.068707,579.63,175.34
2021,11440,마포구,12500,성산동,1,대지,446,0,4.0,20210531,전세,50.03,33000,0,성산시영(대우),1986.0,아파트,마포구 성산동 446,37.572115,126.9018923,659.6,199.53
2022,11560,영등포구,12000,문래동2가,1,대지,35,0,8.0,20220818,전세,58.52,28000,0,남성,1983.0,아파트,영등포구 문래동2가 35,37.5125877,126.8916007,478.47,144.74
2020,11680,강남구,10100,역삼동,1,대지,755,1,11.0,20200321,월세,133.17,40000,240,개나리푸르지오,2006.0,아파트,강남구 역삼동 755-1,37.4997212,127.0499795,300.37,90.86
2021,11380,은평구,10800,역촌동,1,대지,39,33,6.0,20210106,전세,27.83,20000,0,대고샤인빌,2015.0,연립다세대,은평구 역촌동 39-33,37.6010767,126.918207,718.65,217.39
2013,11680,강남구,11800,도곡동,1,대지,527,0,22.0,20130612,전세,59.98,48000,0,도곡렉슬,2006.0,아파트,강남구 도곡동 527,37.4935415,127.0505473,800.27,242.08
2017,11470,양천구,10300,신월동,1,대지,207,71,3.0,20170704,월세,33.51,8000,20,그랜드비스타(207-71),2013.0,연립다세대,양천구 신월동 207-71,37.5263076,126.8333632,238.73,72.22
2015,11380,은평구,10700,응암동,1,대지,760,2,5.0,20150423,월세,30.69,2032,13,백련산힐스테이트2차212동(임대),2011.0,아파트,은평구 응암동 760-2,37.5895186,126.9242334,66.21,20.03
2019,11590,동작구,10100,노량진동,1,대지,39,9,12.0,20190413,월세,16.95,1000,65,JS타운,2017.0,연립다세대,동작구 노량진동 39-9,37.512592,126.9385336,59.0,17.85
2015,11215,광진구,10500,자양동,1,대지,857,0,3.0,20150225,월세,12.17,4000,30,도시엔,2011.0,연립다세대,광진구 자양동 857,37.5393594,127.0647237,328.68,99.42
2015,11290,성북구,13600,하월곡동,1,대지,88,64,16.0,20150318,전세,84.14,30000,0,성북힐스테이트(101동),2007.0,아파트,성북구 하월곡동 88-64,37.6065246,127.0303813,356.55,107.86
2022,11260,중랑구,10100,면목동,1,대지,1523,0,1.0,20220802,월세,82.81,20000,90,솔루테아파트,2001.0,아파트,중랑구 면목동 1523,37.5892639,127.0769675,241.52,73.06
2022,11560,영등포구,10500,영등포동4가,1,대지,117,1,7.0,20221003,전세,10.06,13000,0,디타워,2020.0,연립다세대,영등포구 영등포동4가 117-1,37.5189776,126.9028082,1292.25,390.9
2015,11710,송파구,10800,문정동,1,대지,145,0,5.0,20151010,전세,25.65,10000,0,문정시영,1989.0,아파트,송파구 문정동 145,37.4905974,127.1354467,389.86,117.93
2022,11200,성동구,10200,하왕십리동,1,대지,258,0,2.0,20220326,전세,114.46,68000,0,청계벽산,1996.0,아파트,성동구 하왕십리동 258,37.5687032,127.0316644,594.09,179.71
2017,11620,관악구,10100,봉천동,1,대지,881,26,3.0,20171020,전세,10.81,14000,0,CJ오피스텔,2017.0,아파트,관악구 봉천동 881-26,37.4798073,126.9476954,1295.1,391.77
2017,11500,강서구,10200,등촌동,1,대지,656,52,8.0,20171106,월세,18.28,500,50,강서메트로칸,2013.0,오피스텔,강서구 등촌동 656-52,37.5560298,126.8537067,27.35,8.27
2012,11380,은평구,10300,불광동,1,대지,331,8,,20121113,전세,54.35,7000,0,광서연립,1980.0,연립다세대,은평구 불광동 331-8,37.6192543,126.9273488,128.79,38.96
2015,11380,은평구,10700,응암동,1,대지,760,0,1.0,20150306,전세,84.37,33000,0,백련산힐스테이트2차,2011.0,아파트,은평구 응암동 760,37.5908265,126.9235469,391.13,118.32
2019,11560,영등포구,10900,영등포동8가,1,대지,48,2,3.0,20191106,전세,15.96,14500,0,더로드2,2017.0,오피스텔,영등포구 영등포동8가 48-2,37.5271336,126.9062772,908.52,274.83
2018,11260,중랑구,10600,신내동,1,대지,661,0,4.0,20180315,월세,49.77,14000,20,신내11대명,1996.0,아파트,중랑구 신내동 661,37.6075377,127.0940088,281.29,85.09
2014,11440,마포구,10200,공덕동,1,대지,464,0,19.0,20140208,전세,112.71,55000,0,래미안공덕4차,2005.0,아파트,마포구 공덕동 464,37.5503217,126.9511515,487.98,147.61
2015,11260,중랑구,10300,중화동,1,대지,291,65,,20150324,월세,40.92,1000,30,(291-65),1986.0,연립다세대,중랑구 중화동 291-65,37.5995903,127.0821342,24.44,7.39
2018,11440,마포구,10100,아현동,1,대지,800,0,20.0,20180616,월세,84.99,50000,70,공덕자이,2015.0,아파트,마포구 아현동 800,37.5544849,126.9562273,588.3,177.96
2014,11740,강동구,10800,성내동,1,대지,194,0,6.0,20140526,월세,33.71,5000,65,에스케이허브진,2004.0,아파트,강동구 성내동 194,37.5351568,127.1327274,148.32,44.87
2014,11680,강남구,10300,개포동,1,대지,660,21,2.0,20140731,전세,45.3,15000,0,개포동660-21공동주택(장경란),2010.0,연립다세대,강남구 개포동 660-21,37.477353,127.0585735,331.13,100.17
2021,11110,종로구,18000,교북동,1,대지,126,0,8.0,20210327,월세,37.26,30000,16,경희궁자이(4단지),2017.0,아파트,종로구 교북동 126,37.5715444,126.9614223,805.15,243.56
2019,11710,송파구,10100,잠실동,1,대지,19,0,7.0,20190710,월세,84.8,30000,145,잠실엘스,2008.0,아파트,송파구 잠실동 19,37.5140688,127.0813814,353.77,107.02
2020,11500,강서구,10500,마곡동,1,대지,743,4,7.0,20200827,전세,84.86,23412,0,마곡엠밸리7단지,2014.0,아파트,강서구 마곡동 743-4,37.5653878,126.8234577,275.89,83.46
2017,11530,구로구,10200,구로동,1,대지,26,0,10.0,20170114,월세,33.69,1000,70,신도림포스빌,2004.0,오피스텔,구로구 구로동 26,37.5056952,126.8916485,29.68,8.98
2015,11170,용산구,12800,한강로3가,1,대지,65,230,27.0,20150128,월세,159.77,50000,200,한강대우트럼프월드3,2004.0,아파트,용산구 한강로3가 65-230,37.5231424,126.9629534,312.95,94.67
2015,11350,노원구,10600,중계동,1,대지,509,1,9.0,20150708,전세,34.29,9000,0,씨앤미,2004.0,오피스텔,노원구 중계동 509-1,37.6407489,127.0682363,262.47,79.4
2015,11680,강남구,10600,대치동,1,대지,316,0,12.0,20150223,전세,76.79,38000,0,은마,1979.0,아파트,강남구 대치동 316,37.4974176,127.0653272,494.86,149.69
2019,11440,마포구,12000,서교동,1,대지,329,18,5.0,20191220,전세,31.49,28000,0,젤뚜하우스,2015.0,연립다세대,마포구 서교동 329-18,37.5560993,126.9283738,889.17,268.97
2012,11410,서대문구,11200,대현동,1,대지,54,1,8.0,20120113,월세,121.88,3000,90,무궁화,1974.0,아파트,서대문구 대현동 54-1,37.5586501,126.9459568,24.61,7.45
2017,11380,은평구,11400,진관동,1,대지,135,0,7.0,20170404,전세,134.87,55000,0,은평뉴타운폭포동(힐스테이트D-11),2010.0,아파트,은평구 진관동 135,37.6408009,126.9368069,407.8,123.36
2020,11680,강남구,11200,자곡동,1,대지,662,0,8.0,20191003,전세,29.87,21000,0,강남 지웰홈스,2014.0,오피스텔,강남구 자곡동 662,37.4742782,127.1054022,703.05,212.67
2013,11350,노원구,10500,상계동,1,대지,397,19,2.0,20130926,전세,42.07,11000,0,풀내음파크빌(397-19),2009.0,연립다세대,노원구 상계동 397-19,37.6585819,127.0661237,261.47,79.09
2020,11470,양천구,10100,신정동,1,대지,294,70,7.0,20201201,전세,43.57,23100,0,신정동경남아너스빌2차,2005.0,아파트,양천구 신정동 294-70,37.5174604,126.8717726,530.18,160.38
2014,11710,송파구,11100,방이동,1,대지,144,14,4.0,20140122,전세,52.85,18000,0,노블래스빌,2001.0,연립다세대,송파구 방이동 144-14,37.5127528,127.1151,340.59,103.03
2011,11380,은평구,11400,진관동,1,대지,2,0,6.0,20111103,전세,134.7,29000,0,은평뉴타운상림마을(푸르지오C-7),2008.0,아파트,은평구 진관동 2,37.6489645,126.931866,215.29,65.13
2016,11260,중랑구,10600,신내동,1,대지,650,0,8.0,20160112,전세,59.76,26000,0,신내6대주,1996.0,아파트,중랑구 신내동 650,37.6152616,127.0910145,435.07,131.61
2022,11305,강북구,10100,미아동,1,대지,812,0,4.0,20220502,월세,42.2,2735,27,래미안트리베라2단지(임대),2010.0,아파트,강북구 미아동 812,37.6173113,127.0204017,64.81,19.61
2016,11440,마포구,12400,연남동,1,대지,246,12,4.0,20160112,전세,48.2,18000,0,현대하이츠빌라,1996.0,연립다세대,마포구 연남동 246-12,37.5648823,126.9208879,373.44,112.97
2011,11110,종로구,11500,사직동,1,대지,9,0,7.0,20111110,전세,146.92,65000,0,광화문스페이스본(101동~105동),2008.0,아파트,종로구 사직동 9,37.5744169,126.9688811,442.42,133.83
2013,11230,동대문구,10600,장안동,1,대지,306,7,7.0,20130829,전세,47.58,9000,0,(306-7),2002.0,오피스텔,동대문구 장안동 306-7,37.5735108,127.071234,189.16,57.22
2016,11440,마포구,11000,노고산동,1,대지,1,3,6.0,20151219,월세,29.03,1000,85,신촌포스빌,2004.0,아파트,마포구 노고산동 1-3,37.5562254,126.9422693,34.45,10.42
2022,11740,강동구,10700,암사동,1,대지,503,27,3.0,20220520,월세,48.77,15000,23,(503-27),2009.0,연립다세대,강동구 암사동 503-27,37.5523665,127.1278145,307.57,93.04
2017,11680,강남구,10800,논현동,1,대지,136,39,2.0,20170704,월세,28.66,3000,53,케아하우스23차,2013.0,연립다세대,강남구 논현동 136-39,37.5117233,127.0267046,104.68,31.66
2020,11650,서초구,10700,반포동,1,대지,20,43,25.0,20200613,전세,84.98,133000,0,반포자이,2009.0,아파트,서초구 반포동 20-43,37.5066137,127.0140157,1565.07,473.43
2022,11710,송파구,10700,가락동,1,대지,148,6,3.0,20221013,월세,49.8,12000,48,동성아트빌,2008.0,연립다세대,송파구 가락동 148-6,37.4962671,127.1261376,240.96,72.89
2020,11560,영등포구,12300,문래동5가,1,대지,1,0,6.0,20201010,전세,59.96,32500,0,문래대림,2000.0,아파트,영등포구 문래동5가 1,37.5170157,126.8880637,542.03,163.96
2018,11680,강남구,10500,삼성동,1,대지,17,0,12.0,20180518,전세,59.4,59000,0,삼성동롯데아파트,2000.0,아파트,강남구 삼성동 17,37.5177635,127.0486776,993.27,300.46
2019,11440,마포구,12200,합정동,1,대지,438,1,3.0,20191214,전세,31.18,35000,0,홍익솔루체,2019.0,연립다세대,마포구 합정동 438-1,37.5508095,126.9069689,1122.51,339.56
2020,11230,동대문구,11000,이문동,1,대지,255,190,9.0,20200209,월세,17.39,2000,60,수아주캠퍼스빌,2019.0,오피스텔,동대문구 이문동 255-190,37.6013212,127.0622562,115.01,34.79
2012,11500,강서구,10100,염창동,1,대지,266,0,7.0,20121107,전세,84.97,22000,0,밝은햇살,2005.0,아파트,강서구 염창동 266,37.5511959,126.8699778,258.91,78.32
2022,11710,송파구,10400,송파동,1,대지,110,1,5.0,20220409,전세,53.79,24700,0,명사마을,2003.0,연립다세대,송파구 송파동 110-1,37.5054463,127.1115832,459.19,138.91
2021,11620,관악구,10100,봉천동,1,대지,867,7,7.0,20210725,월세,23.68,1000,50,(867-7),2003.0,오피스텔,관악구 봉천동 867-7,37.4799093,126.9507757,42.23,12.77
2019,11710,송파구,10100,잠실동,1,대지,27,0,3.0,20190425,전세,76.5,36000,0,주공아파트 5단지,1978.0,아파트,송파구 잠실동 27,37.5152448,127.0948683,470.59,142.35
2012,11710,송파구,10400,송파동,1,대지,243,0,10.0,20120222,전세,71.58,34000,0,래미안송파파인탑,2012.0,아파트,송파구 송파동 243,37.5026768,127.1200063,474.99,143.69
2018,11590,동작구,10200,상도동,1,대지,431,0,10.0,20180330,전세,84.96,58000,0,래미안상도3차,2004.0,아파트,동작구 상도동 431,37.499352,126.9547334,682.67,206.51
2018,11500,강서구,10600,내발산동,1,대지,671,28,3.0,20181217,전세,82.95,33000,0,우장산태승훼미리,2002.0,아파트,강서구 내발산동 671-28,37.554171,126.8403979,397.83,120.34
2018,11290,성북구,12500,안암동5가,1,대지,160,16,1.0,20180129,전세,22.72,16000,0,(160-16),2017.0,아파트,성북구 안암동5가 160-16,37.5904505,127.028758,704.23,213.03
2016,11530,구로구,10800,오류동,1,대지,33,33,4.0,20160929,전세,102.24,29000,0,예성 라온팰리스,2007.0,오피스텔,구로구 오류동 33-33,37.4973702,126.8473731,283.65,85.8
2013,11290,성북구,13500,종암동,1,대지,134,0,9.0,20130225,전세,84.99,29500,0,래미안라센트,2011.0,아파트,성북구 종암동 134,37.5992879,127.0385957,347.1,105.0
2011,11380,은평구,10800,역촌동,1,대지,42,41,4.0,20110702,전세,56.16,11500,0,도올탑스텔(42-41),2001.0,연립다세대,은평구 역촌동 42-41,37.601404,126.9199413,204.77,61.94
2019,11680,강남구,10600,대치동,1,대지,985,0,10.0,20190215,전세,110.39,120000,0,래미안대치하이스턴,1989.0,아파트,강남구 대치동 985,37.5010448,127.0654872,1087.05,328.83
2018,11560,영등포구,10900,영등포동8가,1,대지,91,0,6.0,20180214,월세,84.98,40000,60,당산푸르지오,2004.0,아파트,영등포구 영등포동8가 91,37.5300547,126.9063417,470.7,142.39
2022,11710,송파구,10100,잠실동,1,대지,251,13,7.0,20220106,월세,18.24,3000,53,TheCubee,2012.0,연립다세대,송파구 잠실동 251-13,37.5056384,127.0885232,164.47,49.75
2020,11200,성동구,10200,하왕십리동,1,대지,1070,0,11.0,20200517,월세,84.96,50000,90,센트라스,2016.0,아파트,성동구 하왕십리동 1070,37.56610999999999,127.0276467,588.51,178.02
2011,11530,구로구,10200,구로동,1,대지,104,9,13.0,20110618,월세,36.98,3000,50,성호메이플라워멤버스빌,2002.0,아파트,구로구 구로동 104-9,37.4969001,126.8913738,81.12,24.54
2012,11740,강동구,10200,고덕동,1,대지,499,0,15.0,20120801,전세,84.98,40000,0,고덕 아이파크,2011.0,아파트,강동구 고덕동 499,37.5589299,127.1552406,470.7,142.39
2013,11590,동작구,10500,흑석동,1,대지,336,0,2.0,20121217,전세,115.98,44000,0,흑석한강푸르지오,2012.0,아파트,동작구 흑석동 336,37.5032111,126.9654423,379.38,114.76
2018,11710,송파구,10900,장지동,1,대지,879,0,15.0,20180612,전세,51.77,39000,0,송파더센트레,2013.0,아파트,송파구 장지동 879,37.479192,127.1401365,753.33,227.88
2017,11710,송파구,10100,잠실동,1,대지,35,0,13.0,20171011,전세,84.83,82000,0,트리지움,2007.0,아파트,송파구 잠실동 35,37.5098873,127.0895702,966.64,292.41
2020,11470,양천구,10200,목동,1,대지,905,22,17.0,20200626,월세,112.73,40000,100,목동트윈빌,2000.0,아파트,양천구 목동 905-22,37.5321802,126.8768182,354.83,107.34
2020,11680,강남구,10600,대치동,1,대지,888,0,16.0,20201126,전세,149.78,199500,0,대치아이파크,2008.0,아파트,강남구 대치동 888,37.4950563,127.0545628,1331.95,402.92
2020,11440,마포구,12200,합정동,1,대지,400,20,6.0,20200711,전세,58.95,33000,0,백운,2002.0,아파트,마포구 합정동 400-20,37.5491801,126.9067826,559.8,169.34
2020,11290,성북구,13500,종암동,1,대지,134,0,16.0,20200424,전세,84.99,60000,0,래미안라센트,2011.0,아파트,성북구 종암동 134,37.5992879,127.0385957,705.97,213.55
2015,11620,관악구,10100,봉천동,1,대지,1717,0,3.0,20140815,월세,84.75,5000,130,관악푸르지오,2004.0,아파트,관악구 봉천동 1717,37.4873109,126.9608651,59.0,17.85
2022,11590,동작구,10200,상도동,1,대지,324,23,4.0,20220716,월세,14.25,500,45,동양스마트빌,2012.0,연립다세대,동작구 상도동 324-23,37.4993153,126.9301207,35.09,10.61
2015,11650,서초구,10700,반포동,1,대지,32,8,3.0,20150111,전세,105.69,35000,0,삼호가든맨션(3차),1982.0,아파트,서초구 반포동 32-8,37.5022658,127.0117911,331.16,100.18
2018,11530,구로구,10700,개봉동,1,대지,480,0,25.0,20180227,전세,59.49,28500,0,현대홈타운,2001.0,아파트,구로구 개봉동 480,37.4916164,126.8616244,479.07,144.92
2022,11260,중랑구,10200,상봉동,1,대지,128,33,5.0,20220712,월세,29.84,1000,80,예지다움,2018.0,오피스텔,중랑구 상봉동 128-33,37.5944351,127.0791181,33.51,10.14
2018,11500,강서구,10300,화곡동,1,대지,915,16,3.0,20180326,월세,65.88,12000,10,삼백,1999.0,아파트,강서구 화곡동 915-16,37.528863,126.8436157,182.15,55.1
2013,11290,성북구,13400,길음동,1,대지,1279,0,3.0,20130527,전세,84.96,27500,0,길음뉴타운1단지(래미안길음1차),2003.0,아파트,성북구 길음동 1279,37.6058388,127.0202503,323.68,97.91
2020,11500,강서구,10600,내발산동,1,대지,659,1,6.0,20200131,전세,112.69,59900,0,월드메르디앙,2006.0,아파트,강서구 내발산동 659-1,37.5568637,126.8430131,531.55,160.79
2019,11650,서초구,10700,반포동,1,대지,60,4,8.0,20181225,전세,84.96,55000,0,반포미도,1987.0,아파트,서초구 반포동 60-4,37.5013538,127.0087793,647.36,195.83
2018,11560,영등포구,10800,영등포동7가,1,대지,94,186,7.0,20181126,전세,39.14,14000,0,(94-186),2003.0,오피스텔,영등포구 영등포동7가 94-186,37.5241244,126.9089072,357.69,108.2
2020,11560,영등포구,11700,당산동,1,대지,121,321,7.0,20200814,월세,19.86,4000,40,리버프라임빌,2019.0,오피스텔,영등포구 당산동 121-321,37.5271118,126.9087848,201.41,60.93
2018,11530,구로구,10100,신도림동,1,대지,276,32,9.0,20181203,전세,19.81,11250,0,골든애비뉴,2014.0,오피스텔,구로구 신도림동 276-32,37.5133385,126.8807249,567.9,171.79
2018,11350,노원구,10300,공릉동,1,대지,81,0,11.0,20180815,전세,49.6,23000,0,태강아파트,1999.0,아파트,노원구 공릉동 81,37.6234994,127.0831875,463.71,140.27
2019,11305,강북구,10100,미아동,1,대지,812,0,7.0,20191023,전세,59.38,37000,0,삼성래미안트리베라2단지,2010.0,아파트,강북구 미아동 812,37.6173113,127.0204017,623.11,188.49
2021,11470,양천구,10200,목동,1,대지,785,4,1.0,20210707,전세,44.29,33800,0,형지그레이스(B동),2021.0,연립다세대,양천구 목동 785-4,37.5353106,126.8648569,763.15,230.85
2015,11140,중구,16200,신당동,1,대지,393,17,5.0,20150414,전세,49.8,25000,0,이엠빌리지,2015.0,연립다세대,중구 신당동 393-17,37.5623683,127.0097432,502.01,151.86
2012,11650,서초구,10700,반포동,1,대지,20,43,17.0,20120213,전세,59.97,58000,0,반포자이,2009.0,아파트,서초구 반포동 20-43,37.5066137,127.0140157,967.15,292.56
2022,11680,강남구,10500,삼성동,1,대지,2,0,3.0,20221108,월세,84.93,85000,30,서광아파트,1998.0,아파트,강남구 삼성동 2,37.5170294,127.0427453,1000.82,302.75
2012,11680,강남구,10300,개포동,1,대지,140,0,4.0,20110929,전세,61.75,18000,0,주공2,1982.0,아파트,강남구 개포동 140,37.4797385,127.0660782,291.5,88.18
2016,11260,중랑구,10100,면목동,1,대지,653,30,-1.0,20161207,전세,45.84,3500,0,장오빌라나동,1986.0,연립다세대,중랑구 면목동 653-30,37.5796329,127.0851368,76.35,23.1
2011,11380,은평구,11400,진관동,1,대지,102,0,11.0,20110212,전세,59.82,16500,0,은평뉴타운박석고개(힐스테이트1단지),2009.0,아파트,은평구 진관동 102,37.63310329999999,126.9213831,275.83,83.44
2018,11680,강남구,10300,개포동,1,대지,185,0,14.0,20180210,전세,53.06,35000,0,개포주공6단지,1983.0,아파트,강남구 개포동 185,37.4888759,127.0716679,659.63,199.54
2020,11740,강동구,10500,길동,1,대지,332,0,6.0,20200727,전세,81.54,50000,0,한전우성1,1989.0,아파트,강동구 길동 332,37.5433513,127.1441688,613.2,185.49
2020,11530,구로구,10100,신도림동,1,대지,432,1,20.0,20200229,전세,85.92,43000,0,신도림 에스케이뷰,2006.0,오피스텔,구로구 신도림동 432-1,37.5070047,126.8864977,500.47,151.39
2011,11710,송파구,11400,마천동,1,대지,46,7,-1.0,20110421,전세,36.12,5000,0,대진(가동),1989.0,연립다세대,송파구 마천동 46-7,37.5000814,127.1487349,138.43,41.87
2017,11260,중랑구,10300,중화동,1,대지,302,53,3.0,20171111,전세,40.29,25000,0,창우이지스,2017.0,연립다세대,중랑구 중화동 302-53,37.5981491,127.0778751,620.5,187.7
2022,11200,성동구,10900,금호동1가,1,대지,633,0,6.0,20220120,월세,59.9,20000,115,벽산,2001.0,아파트,성동구 금호동1가 633,37.5518565,127.0271162,333.89,101.0
2022,11260,중랑구,10100,면목동,1,대지,87,64,6.0,20220220,전세,30.0,30000,0,한울파크빌,2021.0,연립다세대,중랑구 면목동 87-64,37.5917549,127.0927938,1000.0,302.5
2011,11350,노원구,10500,상계동,1,대지,1251,0,14.0,20110125,전세,84.88,17000,0,노원우성,1992.0,아파트,노원구 상계동 1251,37.6579246,127.0652106,200.28,60.59
2020,11740,강동구,10900,천호동,1,대지,19,1,5.0,20200217,전세,64.53,25000,0,우성,1985.0,아파트,강동구 천호동 19-1,37.5497681,127.1388163,387.42,117.19
2020,11650,서초구,10300,우면동,1,대지,737,0,10.0,20200227,전세,84.77,75000,0,서초네이처힐6단지,2013.0,아파트,서초구 우면동 737,37.4614494,127.0264908,884.75,267.64
2013,11500,강서구,10900,방화동,1,대지,830,5,6.0,20130222,월세,17.64,500,38,방화샤르먕2오피스텔,2003.0,오피스텔,강서구 방화동 830-5,37.5781133,126.8136178,28.34,8.57
2014,11140,중구,14400,장충동2가,1,대지,193,208,,20131220,전세,17.28,5500,0,다운타운,2001.0,연립다세대,중구 장충동2가 193-208,37.5585327,127.0010985,318.29,96.28
2016,11710,송파구,10400,송파동,1,대지,57,16,4.0,20161216,월세,12.87,1000,35,57-16,1992.0,연립다세대,송파구 송파동 57-16,37.5109855,127.1084238,77.7,23.5
2020,11620,관악구,10200,신림동,1,대지,1523,1,6.0,20200103,월세,33.89,3000,75,일성트루엘,2013.0,오피스텔,관악구 신림동 1523-1,37.4704187,126.9344974,88.52,26.78
2016,11740,강동구,10900,천호동,1,대지,414,0,3.0,20161013,전세,31.37,13000,0,두산위브센티움,2004.0,아파트,강동구 천호동 414,37.5394149,127.1269959,414.41,125.36
2022,11710,송파구,10100,잠실동,1,대지,19,0,13.0,20220916,월세,84.8,87250,110,잠실엘스,2008.0,아파트,송파구 잠실동 19,37.5140688,127.0813814,1028.89,311.24
2014,11710,송파구,11100,방이동,1,대지,47,13,3.0,20140219,전세,23.94,8000,0,보보스타워,2004.0,오피스텔,송파구 방이동 47-13,37.51573690000001,127.1127042,334.17,101.09
2020,11740,강동구,10600,둔촌동,1,대지,603,0,10.0,20200413,전세,83.4,38000,0,프라자,1984.0,아파트,강동구 둔촌동 603,37.535401,127.1482422,455.64,137.83
2022,11500,강서구,10800,공항동,1,대지,1371,0,3.0,20220715,전세,84.65,34650,0,해태,2000.0,아파트,강서구 공항동 1371,37.5636761,126.8157946,409.33,123.82
2017,11470,양천구,10100,신정동,1,대지,1193,10,3.0,20170313,전세,41.58,11000,0,정은빌라A동,2003.0,연립다세대,양천구 신정동 1193-10,37.5219817,126.8490005,264.55,80.03
2014,11680,강남구,10500,삼성동,1,대지,92,4,2.0,20140819,전세,98.96,31000,0,런던빌라(92-4),1984.0,연립다세대,강남구 삼성동 92-4,37.5169807,127.0623328,313.26,94.76
2014,11710,송파구,10800,문정동,1,대지,82,14,1.0,20131221,월세,54.36,12000,10,송경빌라,1993.0,연립다세대,송파구 문정동 82-14,37.4826093,127.1277631,220.75,66.78
2020,11710,송파구,11300,거여동,1,대지,290,0,7.0,20200109,전세,39.6,25000,0,거여1단지,1997.0,아파트,송파구 거여동 290,37.4909346,127.1445265,631.31,190.97
2015,11215,광진구,10900,군자동,1,대지,48,13,2.0,20150108,월세,14.03,3000,30,(48-13),2011.0,연립다세대,광진구 군자동 48-13,37.5557942,127.0753491,213.83,64.68
2019,11500,강서구,10300,화곡동,1,대지,1165,0,6.0,20190727,전세,128.81,67000,0,강서힐스테이트,2015.0,아파트,강서구 화곡동 1165,37.5467405,126.8400355,520.15,157.34
2016,11170,용산구,12900,이촌동,1,대지,199,17,3.0,20160506,전세,9.85,2000,0,(199-17),1975.0,연립다세대,용산구 이촌동 199-17,37.525253,126.9564326,203.05,61.42
2020,11320,도봉구,10700,창동,1,대지,749,14,12.0,20200805,전세,28.75,18500,0,라르플레이스1단지,2020.0,오피스텔,도봉구 창동 749-14,37.6599155,127.0418684,643.48,194.65
2022,11590,동작구,10200,상도동,1,대지,266,11,3.0,20221119,전세,40.75,16000,0,주원빌리지(266-11),1995.0,연립다세대,동작구 상도동 266-11,37.496787,126.9362254,392.64,118.77
2019,11305,강북구,10100,미아동,1,대지,314,86,4.0,20190624,전세,49.4,20000,0,이화아트빌,2010.0,연립다세대,강북구 미아동 314-86,37.6225067,127.0240724,404.86,122.47
2022,11500,강서구,10500,마곡동,1,대지,776,2,3.0,20220423,월세,39.97,1000,104,마곡센트럴대방디엠시티오피스텔,2017.0,오피스텔,강서구 마곡동 776-2,37.56829159999999,126.840364,25.02,7.57
2011,11350,노원구,10500,상계동,1,대지,670,0,9.0,20111022,전세,58.01,13500,0,상계주공9(고층),1988.0,아파트,노원구 상계동 670,37.663056,127.0600315,232.72,70.4
2022,11470,양천구,10200,목동,1,대지,903,0,4.0,20220708,전세,95.74,74550,0,목동신시가지3,1986.0,아파트,양천구 목동 903,37.5343588,126.8729492,778.67,235.55
2018,11230,동대문구,10300,제기동,1,대지,892,68,12.0,20180528,전세,96.96,29500,0,경동미주,1977.0,아파트,동대문구 제기동 892-68,37.579179,127.0355943,304.25,92.04
2020,11560,영등포구,11300,당산동3가,1,대지,559,0,3.0,20200911,전세,88.02,60000,0,쌍용예가클래식,2010.0,아파트,영등포구 당산동3가 559,37.5275594,126.8936359,681.66,206.2
2016,11470,양천구,10200,목동,1,대지,936,0,5.0,20160506,월세,59.46,10000,110,진도2,1999.0,아파트,양천구 목동 936,37.5256629,126.8737946,168.18,50.87
2011,11440,마포구,11000,노고산동,1,대지,107,36,4.0,20110228,월세,31.57,5500,55,현대벤처빌,2002.0,아파트,마포구 노고산동 107-36,37.5536587,126.9367613,174.22,52.7
2021,11710,송파구,10700,가락동,1,대지,913,0,6.0,20210204,월세,39.86,10000,170,헬리오시티,2018.0,아파트,송파구 가락동 913,37.497519,127.1072265,250.88,75.89
2013,11560,영등포구,13200,신길동,1,대지,4501,0,3.0,20130523,전세,66.82,17500,0,우창,1983.0,아파트,영등포구 신길동 4501,37.4973004,126.9122968,261.9,79.22
2016,11470,양천구,10200,목동,1,대지,753,1,4.0,20161105,전세,82.62,45000,0,금강에스쁘아,2002.0,아파트,양천구 목동 753-1,37.5381766,126.8711924,544.66,164.76
2017,11110,종로구,17500,숭인동,1,대지,1421,1,5.0,20170411,월세,19.95,3000,45,종로 동광모닝스카이,2013.0,오피스텔,종로구 숭인동 1421-1,37.57344450000001,127.0223771,150.38,45.49
2013,11500,강서구,10300,화곡동,1,대지,56,491,2.0,20131028,전세,41.28,10000,0,민팰리스,2008.0,연립다세대,강서구 화곡동 56-491,37.5416594,126.849465,242.25,73.28
2018,11530,구로구,10100,신도림동,1,대지,642,0,23.0,20180807,전세,84.95,49000,0,대림2,2001.0,아파트,구로구 신도림동 642,37.5058446,126.8805908,576.81,174.48
2015,11350,노원구,10500,상계동,1,대지,670,0,1.0,20150114,전세,66.56,19000,0,상계주공9(고층),1988.0,아파트,노원구 상계동 670,37.663056,127.0600315,285.46,86.35
2020,11740,강동구,10500,길동,1,대지,53,0,2.0,20200217,전세,95.96,34000,0,삼익파크맨션,1982.0,아파트,강동구 길동 53,37.5435291,127.1485909,354.31,107.18
2014,11470,양천구,10200,목동,1,대지,553,33,2.0,20140501,전세,20.79,11000,0,동인에버빌,2011.0,연립다세대,양천구 목동 553-33,37.5443533,126.8675822,529.1,160.05
2021,11470,양천구,10200,목동,1,대지,917,0,10.0,20210119,월세,95.24,75000,100,목동파라곤,2004.0,오피스텔,양천구 목동 917,37.5295038,126.8751635,787.48,238.21
2020,11500,강서구,10300,화곡동,1,대지,1105,3,15.0,20201213,전세,22.68,25400,0,우장산 자하클래식,2020.0,오피스텔,강서구 화곡동 1105-3,37.5525547,126.8499391,1119.93,338.78
2013,11620,관악구,10100,봉천동,1,대지,880,9,7.0,20130221,월세,16.83,1000,41,동도 오피스텔,2002.0,오피스텔,관악구 봉천동 880-9,37.4802381,126.94838,59.42,17.97
2018,11650,서초구,10600,잠원동,1,대지,157,0,8.0,20180224,전세,84.91,78000,0,동아,2002.0,아파트,서초구 잠원동 157,37.5087293,127.0101548,918.62,277.88
2016,11350,노원구,10600,중계동,1,대지,366,0,11.0,20161110,전세,115.35,55000,0,신동아(366),1993.0,아파트,노원구 중계동 366,37.6519314,127.0795434,476.81,144.23
2021,11710,송파구,10800,문정동,1,대지,34,15,3.0,20211213,월세,38.35,2000,85,greenvill,2015.0,연립다세대,송파구 문정동 34-15,37.4874912,127.1257698,52.15,15.78
2019,11380,은평구,10300,불광동,1,대지,281,23,5.0,20191210,전세,51.82,28000,0,디앤제이하우징,2019.0,오피스텔,은평구 불광동 281-23,37.6115398,126.9313563,540.33,163.45
2015,11710,송파구,11100,방이동,1,대지,89,0,21.0,20150824,월세,83.06,40000,60,올림픽선수기자촌1단지,1988.0,아파트,송파구 방이동 89,37.5175612,127.1363717,481.58,145.68
2020,11380,은평구,10300,불광동,1,대지,170,158,3.0,20200717,전세,45.35,20000,0,미토하우스,2017.0,연립다세대,은평구 불광동 170-158,37.6252946,126.9309937,441.01,133.41
2020,11200,성동구,11200,금호동4가,1,대지,800,0,24.0,20200518,전세,59.97,48000,0,대우,2001.0,아파트,성동구 금호동4가 800,37.5459724,127.0196834,800.4,242.12
2019,11470,양천구,10100,신정동,1,대지,922,4,3.0,20190710,전세,26.88,17000,0,블루움,2017.0,연립다세대,양천구 신정동 922-4,37.5250152,126.8538932,632.44,191.31
2015,11350,노원구,10200,월계동,1,대지,376,11,2.0,20150811,전세,37.84,9400,0,우영빌라,1992.0,연립다세대,노원구 월계동 376-11,37.6239289,127.05943,248.41,75.15
2019,11560,영등포구,11000,여의도동,1,대지,40,0,5.0,20190103,전세,133.69,68000,0,장미,1978.0,아파트,영등포구 여의도동 40,37.5234314,126.9342505,508.64,153.86
2015,11470,양천구,10100,신정동,1,대지,119,58,4.0,20150213,전세,21.35,8000,0,(119-58),2012.0,연립다세대,양천구 신정동 119-58,37.5215327,126.8757775,374.71,113.35
2016,11530,구로구,10600,고척동,1,대지,339,0,11.0,20160415,전세,59.89,37000,0,고척파크푸르지오,2009.0,아파트,구로구 고척동 339,37.5076103,126.8581136,617.8,186.88
2011,11380,은평구,10500,구산동,1,대지,159,10,3.0,20110804,월세,59.97,10000,40,브라운스톤구산,2006.0,아파트,은평구 구산동 159-10,37.6115046,126.9092452,166.75,50.44
2013,11560,영등포구,13200,신길동,1,대지,4518,0,15.0,20130705,전세,64.4,18000,0,우성2,1986.0,아파트,영등포구 신길동 4518,37.4982607,126.9125529,279.5,84.55
2013,11740,강동구,10100,명일동,1,대지,270,0,1.0,20130702,전세,146.54,31500,0,삼익가든,1984.0,아파트,강동구 명일동 270,37.5472021,127.1477091,214.96,65.02
2019,11305,강북구,10300,수유동,1,대지,711,19,5.0,20190731,전세,29.74,24300,0,파크리움,2019.0,연립다세대,강북구 수유동 711-19,37.6474103,127.0212295,817.08,247.17
2011,11650,서초구,10200,양재동,1,대지,323,2,2.0,20111121,전세,54.63,16500,0,동산빌라(323-2),1996.0,연립다세대,서초구 양재동 323-2,37.4704751,127.0410583,302.03,91.36
2017,11200,성동구,11400,성수동1가,1,대지,33,23,8.0,20170916,전세,44.05,24000,0,위더스 빌,2015.0,오피스텔,성동구 성수동1가 33-23,37.5413323,127.049965,544.84,164.81
2014,11470,양천구,10100,신정동,1,대지,312,0,5.0,20140202,월세,53.82,7000,75,목동신시가지9,1987.0,아파트,양천구 신정동 312,37.5185416,126.8624047,130.06,39.34
2021,11710,송파구,10300,풍납동,1,대지,509,0,3.0,20210728,월세,59.95,10000,150,씨티극동1,1998.0,아파트,송파구 풍납동 509,37.539608,127.1182077,166.81,50.46
2015,11470,양천구,10200,목동,1,대지,929,0,2.0,20150303,전세,84.77,42000,0,목동청구한신아파트,1997.0,아파트,양천구 목동 929,37.5414577,126.8816548,495.46,149.88
2016,11680,강남구,10800,논현동,1,대지,77,10,1.0,20160127,월세,29.49,3000,50,명주빌라,2002.0,연립다세대,강남구 논현동 77-10,37.5169429,127.0324576,101.73,30.77
2017,11410,서대문구,11200,대현동,1,대지,144,0,7.0,20170929,전세,83.38,40000,0,럭키대현,1999.0,아파트,서대문구 대현동 144,37.559518,126.9479577,479.73,145.12
2013,11650,서초구,10100,방배동,1,대지,809,10,2.0,20130226,월세,17.92,7000,30,(809-10),2010.0,연립다세대,서초구 방배동 809-10,37.4918116,126.9922175,390.62,118.16
2022,11380,은평구,10300,불광동,1,대지,163,3,3.0,20220708,전세,40.71,24150,0,수성렉스빌,2016.0,연립다세대,은평구 불광동 163-3,37.6222655,126.9286424,593.22,179.45
2020,11260,중랑구,10600,신내동,1,대지,479,0,1.0,20200413,전세,84.97,30000,0,중앙하이츠,1996.0,아파트,중랑구 신내동 479,37.6034903,127.0980884,353.07,106.8
2018,11350,노원구,10600,중계동,1,대지,435,1,2.0,20180326,월세,84.34,10000,65,중계현대2,1991.0,아파트,노원구 중계동 435-1,37.655891,127.073994,118.57,35.87
2020,11350,노원구,10400,하계동,1,대지,288,0,12.0,20200113,전세,84.9,48000,0,하계2현대,1997.0,아파트,노원구 하계동 288,37.6446072,127.0720589,565.37,171.02
2015,11530,구로구,10200,구로동,1,대지,650,4,12.0,20150214,월세,76.9,9000,65,SK 허브수,2005.0,오피스텔,구로구 구로동 650-4,37.4958807,126.8727228,117.04,35.4
2013,11200,성동구,11500,성수동2가,1,대지,277,37,9.0,20130730,월세,28.08,2000,50,성원상떼뷰오피스텔,2003.0,오피스텔,성동구 성수동2가 277-37,37.5436961,127.0625164,71.23,21.55
2022,11590,동작구,10200,상도동,1,대지,536,0,5.0,20220402,전세,84.97,63000,0,상도효성해링턴플레이스,2016.0,아파트,동작구 상도동 536,37.5057509,126.9421277,741.44,224.29
2011,11215,광진구,10300,구의동,1,대지,199,18,18.0,20110207,전세,141.78,38000,0,삼성쉐르빌,2001.0,아파트,광진구 구의동 199-18,37.5399001,127.0948193,268.02,81.08
2013,11560,영등포구,10800,영등포동7가,1,대지,94,51,11.0,20130710,월세,16.98,1000,55,훼미리하우스117,2012.0,아파트,영등포구 영등포동7가 94-51,37.5257944,126.9087898,58.89,17.82
2020,11650,서초구,10100,방배동,1,대지,770,1,11.0,20201207,전세,81.39,37800,0,삼호1동~3동,1975.0,아파트,서초구 방배동 770-1,37.4952076,126.9871266,464.43,140.49
2020,11710,송파구,10300,풍납동,1,대지,398,8,2.0,20200210,월세,21.73,5000,30,프라임빌,2012.0,연립다세대,송파구 풍납동 398-8,37.5281077,127.1160317,230.1,69.6
2018,11710,송파구,10600,삼전동,1,대지,58,9,2.0,20181026,전세,29.88,22000,0,아름드리빌,2016.0,연립다세대,송파구 삼전동 58-9,37.5016146,127.0906206,736.28,222.72
2018,11710,송파구,10800,문정동,1,대지,652,5,5.0,20181029,월세,22.4,1000,63,문정 아이파크,2017.0,오피스텔,송파구 문정동 652-5,37.4855846,127.1225635,44.64,13.5
2022,11215,광진구,10400,광장동,1,대지,218,1,7.0,20220625,전세,126.94,110000,0,극동1,1985.0,아파트,광진구 광장동 218-1,37.5431583,127.1041888,866.55,262.13
2013,11305,강북구,10200,번동,1,대지,459,1,2.0,20130202,전세,38.74,14000,0,우연리치빌,2012.0,연립다세대,강북구 번동 459-1,37.6390459,127.0314788,361.38,109.32
2013,11710,송파구,10500,석촌동,1,대지,15,0,6.0,20130706,전세,29.19,8000,0,백제24시찜질방인삼사우나,2004.0,오피스텔,송파구 석촌동 15,37.5028733,127.0989868,274.07,82.91
2014,11680,강남구,10300,개포동,1,대지,1179,6,3.0,20140524,전세,44.28,17500,0,베네스트빌,2002.0,연립다세대,강남구 개포동 1179-6,37.4745577,127.0535792,395.21,119.55
2015,11440,마포구,10300,신공덕동,1,대지,15,80,5.0,20150523,월세,18.53,3000,50,공덕프로포즈Ⅱ,2015.0,오피스텔,마포구 신공덕동 15-80,37.5450194,126.9550263,161.9,48.97
2013,11350,노원구,10500,상계동,1,대지,172,0,12.0,20130315,전세,59.67,15000,0,상계대림,1989.0,아파트,노원구 상계동 172,37.6630427,127.0745157,251.38,76.04
2022,11350,노원구,10600,중계동,1,대지,364,12,7.0,20220805,월세,44.1,2000,85,주공6,1993.0,아파트,노원구 중계동 364-12,37.6486525,127.0783076,45.35,13.72
2022,11140,중구,16500,황학동,1,대지,970,0,5.0,20220421,전세,27.69,33500,0,다베로,2021.0,오피스텔,중구 황학동 970,37.5674405,127.0226326,1209.82,365.97
2014,11230,동대문구,10600,장안동,1,대지,329,2,3.0,20140415,전세,59.93,28000,0,장안힐스테이트,2007.0,아파트,동대문구 장안동 329-2,37.5759642,127.0753503,467.21,141.33
2021,11200,성동구,12200,용답동,1,대지,238,12,14.0,20210209,월세,21.9,12000,10,서희스타힐스리버파크,2016.0,오피스텔,성동구 용답동 238-12,37.5597652,127.069446,547.95,165.75
2017,11530,구로구,10100,신도림동,1,대지,642,0,7.0,20170816,월세,59.88,3500,115,대림1,1999.0,아파트,구로구 신도림동 642,37.5058446,126.8805908,58.45,17.68
2016,11650,서초구,10100,방배동,1,대지,866,20,6.0,20160509,월세,29.6,3000,75,방배대우디오빌,2005.0,아파트,서초구 방배동 866-20,37.4860436,126.9842011,101.35,30.66
2012,11710,송파구,11400,마천동,1,대지,582,0,1.0,20121217,전세,114.84,26000,0,송파파크데일1단지,2011.0,아파트,송파구 마천동 582,37.498957,127.1591102,226.4,68.49
2020,11740,강동구,10500,길동,1,대지,72,1,5.0,20200706,전세,27.06,30000,0,선우빌2,2019.0,연립다세대,강동구 길동 72-1,37.5428764,127.1482535,1108.65,335.37
2017,11350,노원구,10500,상계동,1,대지,637,0,11.0,20171221,전세,49.94,17500,0,상계주공13(고층),1989.0,아파트,노원구 상계동 637,37.6676716,127.0622596,350.42,106.0
2016,11680,강남구,11000,압구정동,1,대지,448,0,9.0,20160926,전세,108.47,60000,0,현대13차(208~211동),1983.0,아파트,강남구 압구정동 448,37.5302322,127.0273365,553.15,167.33
2012,11710,송파구,10400,송파동,1,대지,57,12,2.0,20120331,전세,57.51,18000,0,호수하우스A,1991.0,연립다세대,송파구 송파동 57-12,37.5110669,127.1086964,312.99,94.68
2015,11350,노원구,10300,공릉동,1,대지,742,0,2.0,20150703,월세,84.66,10000,60,효성아파트,1995.0,아파트,노원구 공릉동 742,37.62107840000001,127.0885654,118.12,35.73
2020,11350,노원구,10500,상계동,1,대지,680,0,15.0,20200910,전세,84.97,65000,0,포레나노원,2020.0,아파트,노원구 상계동 680,37.6640252,127.0622935,764.98,231.41
2012,11560,영등포구,13300,대림동,1,대지,718,11,2.0,20121030,전세,17.62,5500,0,동양스위트빌,2011.0,연립다세대,영등포구 대림동 718-11,37.4954064,126.8984822,312.15,94.42
2018,11380,은평구,10500,구산동,1,대지,546,0,3.0,20180901,전세,84.62,31500,0,대림e-편한세상2,2004.0,아파트,은평구 구산동 546,37.612436,126.9058075,372.25,112.61
2021,11500,강서구,10900,방화동,1,대지,832,0,6.0,20210503,전세,59.04,26000,0,청솔,1994.0,아파트,강서구 방화동 832,37.5756306,126.8129654,440.38,133.21
2011,11440,마포구,10200,공덕동,1,대지,457,0,14.0,20111112,전세,114.98,46000,0,공덕3삼성래미안,2004.0,아파트,마포구 공덕동 457,37.5482976,126.9519168,400.07,121.02
2016,11680,강남구,11000,압구정동,1,대지,369,1,7.0,20161103,전세,160.29,130000,0,"현대2차(10,11,20,23,24,25동)",1976.0,아파트,강남구 압구정동 369-1,37.5330263,127.0279257,811.03,245.34
2017,11320,도봉구,10500,쌍문동,1,대지,56,0,10.0,20170818,월세,58.77,2000,70,삼익세라믹,1988.0,아파트,도봉구 쌍문동 56,37.6572508,127.0351747,34.03,10.29
2021,11650,서초구,10800,서초동,1,대지,1479,14,4.0,20210104,월세,32.5,7131,24,서리풀청년아트타운1차,2020.0,연립다세대,서초구 서초동 1479-14,37.4822147,127.0082353,219.42,66.37
2012,11215,광진구,10300,구의동,1,대지,631,1,28.0,20120609,전세,59.82,24000,0,현대프라임,1997.0,아파트,광진구 구의동 631-1,37.53739729999999,127.0976212,401.2,121.36
2019,11305,강북구,10200,번동,1,대지,446,57,9.0,20190113,월세,12.98,1000,50,파크에비뉴,2014.0,아파트,강북구 번동 446-57,37.63637420000001,127.0251564,77.04,23.31
2020,11680,강남구,10600,대치동,1,대지,984,11,1.0,20200708,전세,62.67,32000,0,경일빌라디동,1987.0,연립다세대,강남구 대치동 984-11,37.5011505,127.0664586,510.61,154.46
2021,11320,도봉구,10700,창동,1,대지,38,0,9.0,20210204,전세,36.16,10000,0,주공17단지,1989.0,아파트,도봉구 창동 38,37.6442061,127.0533829,276.55,83.66
2020,11350,노원구,10500,상계동,1,대지,1282,0,24.0,20200728,전세,59.82,29500,0,상계2차중앙하이츠,1998.0,아파트,노원구 상계동 1282,37.6549617,127.0683084,493.15,149.18
2017,11320,도봉구,10700,창동,1,대지,373,0,9.0,20170526,전세,41.3,14000,0,창동주공4단지,1991.0,아파트,도봉구 창동 373,37.6457208,127.0474634,338.98,102.54
2021,11560,영등포구,13200,신길동,1,대지,261,22,15.0,20211123,월세,13.74,1000,45,신길레전드힐스,2013.0,아파트,영등포구 신길동 261-22,37.5056127,126.9083641,72.78,22.02
2020,11740,강동구,10300,상일동,1,대지,490,0,11.0,20200422,전세,114.97,40400,0,고덕리엔파크3단지,2011.0,아파트,강동구 상일동 490,37.5524225,127.1753241,351.4,106.3
2019,11500,강서구,10500,마곡동,1,대지,795,2,13.0,20181215,전세,24.22,18000,0,마곡아이파크,2016.0,오피스텔,강서구 마곡동 795-2,37.5605794,126.8375938,743.19,224.81
2012,11320,도봉구,10700,창동,1,대지,30,0,9.0,20120313,월세,45.77,5500,30,창동주공18단지,1988.0,아파트,도봉구 창동 30,37.6467707,127.0519007,120.17,36.35
2016,11560,영등포구,13300,대림동,1,대지,1119,0,6.0,20160518,전세,84.87,29000,0,갑을명가,2005.0,아파트,영등포구 대림동 1119,37.4956731,126.9036971,341.7,103.36
2020,11410,서대문구,11800,홍은동,1,대지,463,0,8.0,20201215,전세,59.96,26000,0,동원베네스트,2012.0,아파트,서대문구 홍은동 463,37.5989624,126.9439751,433.62,131.17
2019,11650,서초구,10200,양재동,1,대지,388,5,3.0,20191201,월세,61.75,14000,40,휴먼시티빌라2,1996.0,연립다세대,서초구 양재동 388-5,37.4703366,127.0474156,226.72,68.58
2017,11710,송파구,10800,문정동,1,대지,53,15,2.0,20170325,월세,45.71,12000,35,문정스타뷰,2012.0,연립다세대,송파구 문정동 53-15,37.4880573,127.1223114,262.52,79.41
2020,11410,서대문구,12000,남가좌동,1,대지,388,0,18.0,20190829,월세,59.91,13590,20,DMC센트럴아이파크,2018.0,아파트,서대문구 남가좌동 388,37.5791313,126.9206681,226.84,68.62
2019,11320,도봉구,10700,창동,1,대지,804,0,10.0,20181130,전세,59.86,26000,0,대우,1995.0,아파트,도봉구 창동 804,37.64237019999999,127.0375315,434.35,131.39
2012,11710,송파구,10100,잠실동,1,대지,19,0,15.0,20121105,전세,119.93,66000,0,잠실엘스,2008.0,아파트,송파구 잠실동 19,37.5140688,127.0813814,550.32,166.47
2016,11680,강남구,10300,개포동,1,대지,12,0,2.0,20160727,월세,39.53,17000,30,삼익대청아파트,1992.0,아파트,강남구 개포동 12,37.4941844,127.0752156,430.05,130.09
2022,11500,강서구,10500,마곡동,1,대지,760,0,10.0,20220218,월세,22.17,1000,60,마곡나루역보타닉푸르지오시티,2017.0,오피스텔,강서구 마곡동 760,37.5673178,126.8270022,45.11,13.64
2014,11350,노원구,10500,상계동,1,대지,691,0,10.0,20130219,전세,58.01,15500,0,상계주공7(고층),1988.0,아파트,노원구 상계동 691,37.6601568,127.0623087,267.2,80.83
2020,11200,성동구,11000,금호동2가,1,대지,1,0,15.0,20200604,전세,84.98,71000,0,신금호파크자이,2016.0,아파트,성동구 금호동2가 1,37.5554459,127.018621,835.49,252.74
2021,11740,강동구,10700,암사동,1,대지,414,2,23.0,20210612,전세,102.34,87000,0,롯데캐슬퍼스트,2008.0,아파트,강동구 암사동 414-2,37.5564401,127.1420345,850.11,257.16
2011,11350,노원구,10500,상계동,1,대지,1256,0,1.0,20110415,전세,59.95,12000,0,은빛2단지,1998.0,아파트,노원구 상계동 1256,37.6799626,127.0535049,200.17,60.55
2011,11320,도봉구,10700,창동,1,대지,38,0,2.0,20110223,월세,36.16,3000,25,주공17단지,1989.0,아파트,도봉구 창동 38,37.6442061,127.0533829,82.96,25.1
2014,11305,강북구,10100,미아동,1,대지,160,3,16.0,20141130,전세,22.43,9000,0,수유역푸르지오시티,2014.0,오피스텔,강북구 미아동 160-3,37.6341881,127.0238611,401.25,121.38
2022,11545,금천구,10300,시흥동,1,대지,118,86,2.0,20220716,월세,21.78,1000,50,미림메르디앙,,오피스텔,금천구 시흥동 118-86,37.4543233,126.897926,45.91,13.89
2019,11140,중구,16800,순화동,1,대지,151,0,25.0,20190607,전세,84.9,57000,0,순화동더샵,2007.0,아파트,중구 순화동 151,37.5601765,126.9720654,671.38,203.09
2021,11500,강서구,10300,화곡동,1,대지,362,69,4.0,20210917,전세,69.92,23500,0,동영빌라(가),2003.0,연립다세대,강서구 화곡동 362-69,37.5334312,126.8398832,336.1,101.67
2018,11710,송파구,11400,마천동,1,대지,41,6,3.0,20180130,전세,56.71,15000,0,금동레스빌,2003.0,연립다세대,송파구 마천동 41-6,37.4995884,127.1467859,264.5,80.01
2017,11350,노원구,10500,상계동,1,대지,1270,0,8.0,20170310,전세,84.54,25000,0,금호타운,1995.0,아파트,노원구 상계동 1270,37.6672865,127.0688196,295.72,89.45
2020,11350,노원구,10500,상계동,1,대지,1304,0,2.0,20200213,전세,67.24,28000,0,대망드림힐1,2003.0,아파트,노원구 상계동 1304,37.6763789,127.0583623,416.42,125.97
2022,11350,노원구,10500,상계동,1,대지,670,0,12.0,20220107,전세,49.94,18900,0,상계주공9(고층),1988.0,아파트,노원구 상계동 670,37.663056,127.0600315,378.45,114.48
2020,11320,도봉구,10800,도봉동,1,대지,654,0,4.0,20200302,월세,105.98,500,70,동아에코빌,2003.0,아파트,도봉구 도봉동 654,37.6815159,127.0468996,4.72,1.43
2020,11710,송파구,10500,석촌동,1,대지,56,2,3.0,20201223,월세,35.63,5000,55,(56-2),2002.0,연립다세대,송파구 석촌동 56-2,37.5051001,127.1010983,140.33,42.45
2019,11560,영등포구,12600,양평동2가,1,대지,1,2,9.0,20190824,전세,79.75,33000,0,양평동월드메르디앙오피스텔,2005.0,오피스텔,영등포구 양평동2가 1-2,37.5213286,126.884528,413.79,125.17
2011,11620,관악구,10200,신림동,1,대지,598,48,-1.0,20110502,월세,32.49,500,35,진주빌라(598-48),1994.0,연립다세대,관악구 신림동 598-48,37.4773953,126.9207122,15.39,4.66
2018,11350,노원구,10400,하계동,1,대지,288,0,2.0,20171216,전세,75.35,36000,0,하계2현대,1997.0,아파트,노원구 하계동 288,37.6446072,127.0720589,477.77,144.53
2020,11620,관악구,10200,신림동,1,대지,254,301,3.0,20200830,전세,84.6,35000,0,(254-301),1991.0,연립다세대,관악구 신림동 254-301,37.4658865,126.9342765,413.71,125.15
2012,11500,강서구,10600,내발산동,1,대지,734,0,1.0,20120131,전세,84.45,24000,0,우장산월드메르디앙,2005.0,아파트,강서구 내발산동 734,37.5543829,126.8382337,284.19,85.97
2018,11215,광진구,10400,광장동,1,대지,566,0,7.0,20181201,월세,59.95,25000,50,청구,1996.0,아파트,광진구 광장동 566,37.5424654,127.0962926,417.01,126.15
2021,11710,송파구,10900,장지동,1,대지,905,0,4.0,20211213,월세,39.79,7255,14,위례포레샤인23단지,2017.0,아파트,송파구 장지동 905,37.4763763,127.13534,182.33,55.16
2015,11620,관악구,10100,봉천동,1,대지,883,6,3.0,20150819,월세,17.99,1000,70,IP TOWER,2010.0,오피스텔,관악구 봉천동 883-6,37.4811855,126.9483684,55.59,16.81
2011,11290,성북구,11400,삼선동4가,1,대지,73,0,9.0,20110830,전세,84.87,22000,0,코오롱,1999.0,아파트,성북구 삼선동4가 73,37.59033489999999,127.0126811,259.22,78.41
2012,11500,강서구,10900,방화동,1,대지,869,0,6.0,20120114,전세,57.17,15000,0,신안네트빌2단지,2002.0,아파트,강서구 방화동 869,37.5702401,126.8096148,262.38,79.37
2015,11710,송파구,10800,문정동,1,대지,35,10,4.0,20150613,전세,45.32,16000,0,레제스빌,2002.0,연립다세대,송파구 문정동 35-10,37.4871718,127.1262079,353.05,106.8
2012,11230,동대문구,10600,장안동,1,대지,94,27,5.0,20120703,전세,35.13,10000,0,maru,2003.0,연립다세대,동대문구 장안동 94-27,37.5815123,127.0707096,284.66,86.11
2022,11305,강북구,10300,수유동,1,대지,740,0,9.0,20220203,월세,17.64,1000,70,에피소드수유838,2021.0,아파트,강북구 수유동 740,37.6383275,127.0073721,56.69,17.15
2014,11350,노원구,10600,중계동,1,대지,364,12,6.0,20140331,월세,44.1,11000,0,주공6,1993.0,아파트,노원구 중계동 364-12,37.6486525,127.0783076,249.43,75.45
2014,11350,노원구,10500,상계동,1,대지,720,0,12.0,20140322,월세,41.3,1000,57,상계주공6(고층),1988.0,아파트,노원구 상계동 720,37.6537972,127.0647488,24.21,7.32
2022,11170,용산구,11200,원효로1가,1,대지,134,0,4.0,20220621,월세,43.97,17344,73,용산원효루미니,2022.0,아파트,용산구 원효로1가 134,37.5399801,126.967447,394.45,119.32
2016,11650,서초구,10600,잠원동,1,대지,63,34,12.0,20160827,월세,81.05,48100,25,한신로얄,1992.0,아파트,서초구 잠원동 63-34,37.5135798,127.0093129,593.46,179.52
2015,11230,동대문구,10500,답십리동,1,대지,80,0,15.0,20150521,전세,59.74,26000,0,답십리청솔우성,2000.0,아파트,동대문구 답십리동 80,37.5744795,127.0597451,435.22,131.65
2019,11650,서초구,10800,서초동,1,대지,1640,11,2.0,20190813,전세,29.72,28000,0,SM스마트빌,2016.0,연립다세대,서초구 서초동 1640-11,37.4939196,127.0189939,942.13,284.99
2018,11680,강남구,10500,삼성동,1,대지,53,2,5.0,20160309,전세,104.31,55000,0,진흥아파트,1984.0,아파트,강남구 삼성동 53-2,37.5187135,127.0521209,527.27,159.5
2013,11590,동작구,10700,사당동,1,대지,181,391,-1.0,20130928,전세,49.26,8500,0,태평,1997.0,연립다세대,동작구 사당동 181-391,37.4910671,126.9611156,172.55,52.2
2015,11290,성북구,10300,돈암동,1,대지,609,1,16.0,20150212,월세,59.58,5000,70,한진(609-1),1998.0,아파트,성북구 돈암동 609-1,37.5948075,127.0103188,83.92,25.39
2018,11380,은평구,10900,신사동,1,대지,23,48,4.0,20180604,전세,26.04,9000,0,신사동 23-48,2002.0,오피스텔,은평구 신사동 23-48,37.5981047,126.9149843,345.62,104.55
2018,11440,마포구,10500,용강동,1,대지,118,1,3.0,20180411,전세,51.5,23000,0,갑도그림빌라A,1994.0,연립다세대,마포구 용강동 118-1,37.541236,126.9395141,446.6,135.1
2016,11740,강동구,10600,둔촌동,1,대지,170,1,2.0,20160830,전세,51.67,12500,0,둔촌주공1단지,1980.0,아파트,강동구 둔촌동 170-1,37.5269355,127.1387509,241.92,73.18
2022,11290,성북구,13900,석관동,1,대지,407,0,3.0,20220917,월세,59.9,20000,80,석관래미안,2009.0,아파트,성북구 석관동 407,37.6083656,127.0545186,333.89,101.0
2020,11590,동작구,10200,상도동,1,대지,211,1,3.0,20201007,전세,131.47,45000,0,약수맨션,1980.0,아파트,동작구 상도동 211-1,37.4984871,126.9443163,342.28,103.54
2021,11650,서초구,10600,잠원동,1,대지,158,0,4.0,20210930,월세,84.46,20000,470,래미안신반포팰리스,2016.0,아파트,서초구 잠원동 158,37.514859,127.0123303,236.8,71.63
2018,11290,성북구,13700,상월곡동,1,대지,54,1,2.0,20180121,월세,13.64,500,43,영스테이,2012.0,연립다세대,성북구 상월곡동 54-1,37.605487,127.0457877,36.66,11.09
2016,11590,동작구,10900,신대방동,1,대지,565,0,10.0,20161130,전세,84.99,41000,0,우성1,1988.0,아파트,동작구 신대방동 565,37.4922665,126.9116072,482.41,145.93
2016,11740,강동구,10900,천호동,1,대지,425,5,13.0,20161107,월세,130.13,2000,230,대우한강베네시티,2007.0,아파트,강동구 천호동 425-5,37.5406102,127.1249224,15.37,4.65
2021,11500,강서구,10500,마곡동,1,대지,776,2,3.0,20210328,전세,39.97,28000,0,마곡센트럴대방디엠시티오피스텔,2017.0,오피스텔,강서구 마곡동 776-2,37.56829159999999,126.840364,700.53,211.91
2022,11590,동작구,10200,상도동,1,대지,900,0,7.0,20221017,월세,72.33,6000,160,상도파크자이,2016.0,아파트,동작구 상도동 900,37.5057831,126.9383233,82.95,25.09
2016,11410,서대문구,11700,연희동,1,대지,122,3,4.0,20161119,월세,19.44,1000,55,정연 지오빌,2002.0,오피스텔,서대문구 연희동 122-3,37.56964079999999,126.9309452,51.44,15.56
2022,11350,노원구,10600,중계동,1,대지,512,0,14.0,20220214,월세,49.89,15000,21,중계무지개,1991.0,아파트,노원구 중계동 512,37.6427206,127.0665677,300.66,90.95
2012,11380,은평구,11400,진관동,1,대지,83,0,9.0,20120109,전세,84.27,24000,0,은평뉴타운우물골(두산위브5단지),2009.0,아파트,은평구 진관동 83,37.6345633,126.9275683,284.8,86.15
2021,11410,서대문구,12000,남가좌동,1,대지,388,0,11.0,20210607,전세,84.94,80000,0,DMC센트럴아이파크,2018.0,아파트,서대문구 남가좌동 388,37.5791313,126.9206681,941.84,284.91
2019,11710,송파구,10500,석촌동,1,대지,57,20,2.0,20120517,월세,20.67,1000,80,(57-20),2003.0,연립다세대,송파구 석촌동 57-20,37.5047637,127.1008759,48.38,14.63
2022,11140,중구,14600,광희동2가,1,대지,47,2,4.0,20220819,월세,27.81,2000,115,동원스위트광희,2018.0,연립다세대,중구 광희동2가 47-2,37.5647993,127.0083277,71.92,21.75
2015,11680,강남구,10500,삼성동,1,대지,16,2,7.0,20150324,월세,84.24,62000,60,삼성동힐스테이트 1단지,2008.0,아파트,강남구 삼성동 16-2,37.5163059,127.0484473,735.99,222.64
2017,11410,서대문구,11200,대현동,1,대지,144,0,10.0,20170815,전세,83.38,39500,0,럭키대현,1999.0,아파트,서대문구 대현동 144,37.559518,126.9479577,473.73,143.3
2017,11440,마포구,10300,신공덕동,1,대지,168,0,4.0,20170828,전세,114.82,64000,0,신공덕e편한세상,2007.0,아파트,마포구 신공덕동 168,37.541945,126.9570962,557.39,168.61
2016,11650,서초구,10700,반포동,1,대지,549,14,1.0,20160808,전세,94.91,24000,0,청원빌라,1989.0,연립다세대,서초구 반포동 549-14,37.4980267,127.0018467,252.87,76.49
2011,11620,관악구,10100,봉천동,1,대지,1686,19,3.0,20110129,전세,17.63,4500,0,봉천오피스텔,2003.0,오피스텔,관악구 봉천동 1686-19,37.4778037,126.9634426,255.25,77.21
2011,11620,관악구,10100,봉천동,1,대지,1688,79,3.0,20110604,월세,39.08,4000,50,(1688-79),2003.0,연립다세대,관악구 봉천동 1688-79,37.4771595,126.9663276,102.35,30.96
2021,11305,강북구,10100,미아동,1,대지,223,31,2.0,20210712,월세,39.3,11000,20,삼흥하이츠빌라,1994.0,연립다세대,강북구 미아동 223-31,37.6269975,127.0234746,279.9,84.67
2022,11110,종로구,13300,익선동,1,대지,30,6,6.0,20220802,월세,57.18,10000,120,운현신화타워,1998.0,아파트,종로구 익선동 30-6,37.5751021,126.9891365,174.89,52.9
2021,11410,서대문구,10400,미근동,1,대지,215,0,6.0,20210412,전세,40.66,15000,0,서소문,1971.0,아파트,서대문구 미근동 215,37.5630566,126.968463,368.91,111.6
2011,11410,서대문구,11200,대현동,1,대지,144,0,15.0,20110225,전세,83.38,23000,0,럭키대현,1999.0,아파트,서대문구 대현동 144,37.559518,126.9479577,275.85,83.44
2018,11320,도봉구,10500,쌍문동,1,대지,50,0,12.0,20171204,전세,85.0,25000,0,현대2,1993.0,아파트,도봉구 쌍문동 50,37.6592996,127.0305271,294.12,88.97
2017,11470,양천구,10300,신월동,1,대지,95,14,1.0,20170421,월세,59.04,2000,60,우성빌라(95),1995.0,연립다세대,양천구 신월동 95-14,37.5355244,126.8320667,33.88,10.25
2013,11215,광진구,10400,광장동,1,대지,554,7,19.0,20130323,전세,84.53,40000,0,현대5,1989.0,아파트,광진구 광장동 554-7,37.5397145,127.1000979,473.2,143.14
